{"type":"FeatureCollection","features":[{"type":"Feature","id":1,"geometry":{"type":"Point","coordinates":[-81.704528549999964,35.749477010000078]},"properties":{"OBJECTID":1,"unnamed__0":6,"full_name":"Andy Jordan","contact_type":"Preferred SUB/Vendor; NC Land Broker","phone":"828-226-0947","email":"andypjordandd@gmail.com","company":null,"city":null,"state":"NC","county":"burke","website":null,"latitude":35.74947701,"longitude":-81.704528550000006}},{"type":"Feature","id":2,"geometry":{"type":"Point","coordinates":[-81.920036669999945,35.402210610000054]},"properties":{"OBJECTID":2,"unnamed__0":7,"full_name":"Andy Jordan","contact_type":"Preferred SUB/Vendor; NC Land Broker","phone":"828-226-0947","email":"andypjordandd@gmail.com","company":null,"city":null,"state":"NC","county":"rutherford","website":null,"latitude":35.402210609999997,"longitude":-81.920036670000002}},{"type":"Feature","id":3,"geometry":{"type":"Point","coordinates":[-82.048730129999967,35.681177210000044]},"properties":{"OBJECTID":3,"unnamed__0":8,"full_name":"Andy Jordan","contact_type":"Preferred SUB/Vendor; NC Land Broker","phone":"828-226-0947","email":"andypjordandd@gmail.com","company":null,"city":null,"state":"NC","county":"mcdowell","website":null,"latitude":35.681177210000001,"longitude":-82.048730129999996}},{"type":"Feature","id":4,"geometry":{"type":"Point","coordinates":[-82.163343079999947,36.013235780000059]},"properties":{"OBJECTID":4,"unnamed__0":9,"full_name":"Andy Jordan","contact_type":"Preferred SUB/Vendor; NC Land Broker","phone":"828-226-0947","email":"andypjordandd@gmail.com","company":null,"city":null,"state":"NC","county":"mitchell","website":null,"latitude":36.013235780000002,"longitude":-82.163343080000004}},{"type":"Feature","id":5,"geometry":{"type":"Point","coordinates":[-82.307466659999989,35.898819210000056]},"properties":{"OBJECTID":5,"unnamed__0":10,"full_name":"Andy Jordan","contact_type":"Preferred SUB/Vendor; NC Land Broker","phone":"828-226-0947","email":"andypjordandd@gmail.com","company":null,"city":null,"state":"NC","county":"yancey","website":null,"latitude":35.898819209999999,"longitude":-82.307466660000003}},{"type":"Feature","id":6,"geometry":{"type":"Point","coordinates":[-82.705838549999953,35.858069730000068]},"properties":{"OBJECTID":6,"unnamed__0":11,"full_name":"Andy Jordan","contact_type":"Preferred SUB/Vendor; NC Land Broker","phone":"828-226-0947","email":"andypjordandd@gmail.com","company":null,"city":null,"state":"NC","county":"madison","website":null,"latitude":35.858069729999997,"longitude":-82.705838549999996}},{"type":"Feature","id":7,"geometry":{"type":"Point","coordinates":[-82.530125089999956,35.611212780000074]},"properties":{"OBJECTID":7,"unnamed__0":12,"full_name":"Andy Jordan","contact_type":"Preferred SUB/Vendor; NC Land Broker","phone":"828-226-0947","email":"andypjordandd@gmail.com","company":null,"city":null,"state":"NC","county":"buncombe","website":null,"latitude":35.611212780000002,"longitude":-82.530125089999999}},{"type":"Feature","id":8,"geometry":{"type":"Point","coordinates":[-82.169648079999945,35.279283730000031]},"properties":{"OBJECTID":8,"unnamed__0":13,"full_name":"Andy Jordan","contact_type":"Preferred SUB/Vendor; NC Land Broker","phone":"828-226-0947","email":"andypjordandd@gmail.com","company":null,"city":null,"state":"NC","county":"polk","website":null,"latitude":35.279283730000003,"longitude":-82.169648080000002}},{"type":"Feature","id":9,"geometry":{"type":"Point","coordinates":[-82.479924229999938,35.336255140000048]},"properties":{"OBJECTID":9,"unnamed__0":14,"full_name":"Andy Jordan","contact_type":"Preferred SUB/Vendor; NC Land Broker","phone":"828-226-0947","email":"andypjordandd@gmail.com","company":null,"city":null,"state":"NC","county":"henderson","website":null,"latitude":35.336255139999999,"longitude":-82.479924229999995}},{"type":"Feature","id":10,"geometry":{"type":"Point","coordinates":[-82.798398559999953,35.202102660000037]},"properties":{"OBJECTID":10,"unnamed__0":15,"full_name":"Andy Jordan","contact_type":"Preferred SUB/Vendor; NC Land Broker","phone":"828-226-0947","email":"andypjordandd@gmail.com","company":null,"city":null,"state":"NC","county":"transylvania","website":null,"latitude":35.202102660000001,"longitude":-82.798398559999995}},{"type":"Feature","id":11,"geometry":{"type":"Point","coordinates":[-82.982077379999964,35.555925940000066]},"properties":{"OBJECTID":11,"unnamed__0":16,"full_name":"Andy Jordan","contact_type":"Preferred SUB/Vendor; NC Land Broker","phone":"828-226-0947","email":"andypjordandd@gmail.com","company":null,"city":null,"state":"NC","county":"haywood","website":null,"latitude":35.555925940000002,"longitude":-82.982077380000007}},{"type":"Feature","id":12,"geometry":{"type":"Point","coordinates":[-83.140698049999969,35.287260500000059]},"properties":{"OBJECTID":12,"unnamed__0":17,"full_name":"Andy Jordan","contact_type":"Preferred SUB/Vendor; NC Land Broker","phone":"828-226-0947","email":"andypjordandd@gmail.com","company":null,"city":null,"state":"NC","county":"jackson","website":null,"latitude":35.287260500000002,"longitude":-83.140698049999997}},{"type":"Feature","id":13,"geometry":{"type":"Point","coordinates":[-83.492883319999976,35.486746550000078]},"properties":{"OBJECTID":13,"unnamed__0":18,"full_name":"Andy Jordan","contact_type":"Preferred SUB/Vendor; NC Land Broker","phone":"828-226-0947","email":"andypjordandd@gmail.com","company":null,"city":null,"state":"NC","county":"swain","website":null,"latitude":35.486746549999999,"longitude":-83.492883320000004}},{"type":"Feature","id":14,"geometry":{"type":"Point","coordinates":[-83.421986239999967,35.150364950000039]},"properties":{"OBJECTID":14,"unnamed__0":19,"full_name":"Andy Jordan","contact_type":"Preferred SUB/Vendor; NC Land Broker","phone":"828-226-0947","email":"andypjordandd@gmail.com","company":null,"city":null,"state":"NC","county":"macon","website":null,"latitude":35.150364949999997,"longitude":-83.421986239999995}},{"type":"Feature","id":15,"geometry":{"type":"Point","coordinates":[-83.833587819999934,35.350166020000074]},"properties":{"OBJECTID":15,"unnamed__0":20,"full_name":"Andy Jordan","contact_type":"Preferred SUB/Vendor; NC Land Broker","phone":"828-226-0947","email":"andypjordandd@gmail.com","company":null,"city":null,"state":"NC","county":"graham","website":null,"latitude":35.350166020000003,"longitude":-83.833587820000005}},{"type":"Feature","id":16,"geometry":{"type":"Point","coordinates":[-84.063569979999954,35.133863320000046]},"properties":{"OBJECTID":16,"unnamed__0":21,"full_name":"Andy Jordan","contact_type":"Preferred SUB/Vendor; NC Land Broker","phone":"828-226-0947","email":"andypjordandd@gmail.com","company":null,"city":null,"state":"NC","county":"cherokee","website":null,"latitude":35.133863320000003,"longitude":-84.063569979999997}},{"type":"Feature","id":17,"geometry":{"type":"Point","coordinates":[-83.75021215999999,35.057210960000077]},"properties":{"OBJECTID":17,"unnamed__0":22,"full_name":"Andy Jordan","contact_type":"Preferred SUB/Vendor; NC Land Broker","phone":"828-226-0947","email":"andypjordandd@gmail.com","company":null,"city":null,"state":"NC","county":"clay","website":null,"latitude":35.057210959999999,"longitude":-83.750212160000004}},{"type":"Feature","id":18,"geometry":{"type":"Point","coordinates":[-89.493610879999949,36.335118950000037]},"properties":{"OBJECTID":18,"unnamed__0":23,"full_name":"Bret Ferguson","contact_type":"Preferred SUB/Vendor; TN Soil Scientist/Perc Testing Company","phone":"731-202-6803","email":"bret.ferguson@tn.gov","company":null,"city":null,"state":"TN","county":"lake","website":null,"latitude":36.335118950000002,"longitude":-89.493610880000006}},{"type":"Feature","id":19,"geometry":{"type":"Point","coordinates":[-89.413826339999957,36.05904361000006]},"properties":{"OBJECTID":19,"unnamed__0":24,"full_name":"Bret Ferguson","contact_type":"Preferred SUB/Vendor; TN Soil Scientist/Perc Testing Company","phone":"731-202-6803","email":"bret.ferguson@tn.gov","company":null,"city":null,"state":"TN","county":"dyer","website":null,"latitude":36.059043610000003,"longitude":-89.41382634}},{"type":"Feature","id":20,"geometry":{"type":"Point","coordinates":[-89.631506409999986,35.76091389000004]},"properties":{"OBJECTID":20,"unnamed__0":25,"full_name":"Bret Ferguson","contact_type":"Preferred SUB/Vendor; TN Soil Scientist/Perc Testing Company","phone":"731-202-6803","email":"bret.ferguson@tn.gov","company":null,"city":null,"state":"TN","county":"lauderdale","website":null,"latitude":35.760913889999998,"longitude":-89.63150641}},{"type":"Feature","id":21,"geometry":{"type":"Point","coordinates":[-89.148861859999954,36.358214200000077]},"properties":{"OBJECTID":21,"unnamed__0":26,"full_name":"Bret Ferguson","contact_type":"Preferred SUB/Vendor; TN Soil Scientist/Perc Testing Company","phone":"731-202-6803","email":"bret.ferguson@tn.gov","company":null,"city":null,"state":"TN","county":"obion","website":null,"latitude":36.358214199999999,"longitude":-89.148861859999997}},{"type":"Feature","id":22,"geometry":{"type":"Point","coordinates":[-78.827350779999961,35.048512690000052]},"properties":{"OBJECTID":22,"unnamed__0":27,"full_name":"Brian O'Connell","contact_type":"Preferred SUB/Vendor; NC Land Broker","phone":"-5337","email":"brian@welcomehometeamnc.com","company":"welcome home team nc","city":null,"state":"NC","county":"cumberland","website":null,"latitude":35.048512690000003,"longitude":-78.827350780000003}},{"type":"Feature","id":23,"geometry":{"type":"Point","coordinates":[-79.237091049999947,35.017290560000049]},"properties":{"OBJECTID":23,"unnamed__0":28,"full_name":"Brian O'Connell","contact_type":"Preferred SUB/Vendor; NC Land Broker","phone":"-5337","email":"brian@welcomehometeamnc.com","company":"welcome home team nc","city":null,"state":"NC","county":"hoke","website":null,"latitude":35.017290559999999,"longitude":-79.237091050000004}},{"type":"Feature","id":24,"geometry":{"type":"Point","coordinates":[-78.869393139999943,35.36860783000003]},"properties":{"OBJECTID":24,"unnamed__0":29,"full_name":"Brian O'Connell","contact_type":"Preferred SUB/Vendor; NC Land Broker","phone":"-5337","email":"brian@welcomehometeamnc.com","company":"welcome home team nc","city":null,"state":"NC","county":"harnett","website":null,"latitude":35.368607830000002,"longitude":-78.86939314}},{"type":"Feature","id":25,"geometry":{"type":"Point","coordinates":[-79.103542089999962,34.639949570000056]},"properties":{"OBJECTID":25,"unnamed__0":30,"full_name":"Brian O'Connell","contact_type":"Preferred SUB/Vendor; NC Land Broker","phone":"-5337","email":"brian@welcomehometeamnc.com","company":"welcome home team nc","city":null,"state":"NC","county":"robeson","website":null,"latitude":34.639949569999999,"longitude":-79.103542090000005}},{"type":"Feature","id":26,"geometry":{"type":"Point","coordinates":[-78.562967279999953,34.614243110000075]},"properties":{"OBJECTID":26,"unnamed__0":31,"full_name":"Brian O'Connell","contact_type":"Preferred SUB/Vendor; NC Land Broker","phone":"-5337","email":"brian@welcomehometeamnc.com","company":"welcome home team nc","city":null,"state":"NC","county":"bladen","website":null,"latitude":34.614243109999997,"longitude":-78.562967279999995}},{"type":"Feature","id":27,"geometry":{"type":"Point","coordinates":[-79.480436509999947,34.840813850000075]},"properties":{"OBJECTID":27,"unnamed__0":32,"full_name":"Brian O'Connell","contact_type":"Preferred SUB/Vendor; NC Land Broker","phone":"-5337","email":"brian@welcomehometeamnc.com","company":"welcome home team nc","city":null,"state":"NC","county":"scotland","website":null,"latitude":34.840813850000004,"longitude":-79.480436510000004}},{"type":"Feature","id":28,"geometry":{"type":"Point","coordinates":[-79.48119848999994,35.310637480000025]},"properties":{"OBJECTID":28,"unnamed__0":33,"full_name":"Brian O'Connell","contact_type":"Preferred SUB/Vendor; NC Land Broker","phone":"-5337","email":"brian@welcomehometeamnc.com","company":"welcome home team nc","city":null,"state":"NC","county":"moore","website":null,"latitude":35.310637479999997,"longitude":-79.481198489999997}},{"type":"Feature","id":29,"geometry":{"type":"Point","coordinates":[-77.932879819999982,34.936156170000061]},"properties":{"OBJECTID":29,"unnamed__0":39,"full_name":"Casey Davis","contact_type":"Preferred SUB/Vendor; NC Land Broker","phone":"910-330-9506","email":"casey@mossyoakproperties.com","company":null,"city":null,"state":"NC","county":"duplin","website":"https://www.landandfarmsrealty.com/agent/casey-davis","latitude":34.936156169999997,"longitude":-77.932879819999997}},{"type":"Feature","id":30,"geometry":{"type":"Point","coordinates":[-77.355085669999937,35.02170140000004]},"properties":{"OBJECTID":30,"unnamed__0":40,"full_name":"Casey Davis","contact_type":"Preferred SUB/Vendor; NC Land Broker","phone":"910-330-9506","email":"casey@mossyoakproperties.com","company":null,"city":null,"state":"NC","county":"jones","website":"https://www.landandfarmsrealty.com/agent/casey-davis","latitude":35.021701399999998,"longitude":-77.355085669999994}},{"type":"Feature","id":31,"geometry":{"type":"Point","coordinates":[-77.641335989999959,35.239088940000045]},"properties":{"OBJECTID":31,"unnamed__0":41,"full_name":"Casey Davis","contact_type":"Preferred SUB/Vendor; NC Land Broker","phone":"910-330-9506","email":"casey@mossyoakproperties.com","company":null,"city":null,"state":"NC","county":"lenoir","website":"https://www.landandfarmsrealty.com/agent/casey-davis","latitude":35.239088940000002,"longitude":-77.641335990000002}},{"type":"Feature","id":32,"geometry":{"type":"Point","coordinates":[-77.433448229999954,34.736606380000069]},"properties":{"OBJECTID":32,"unnamed__0":42,"full_name":"Casey Davis","contact_type":"Preferred SUB/Vendor; NC Land Broker","phone":"910-330-9506","email":"casey@mossyoakproperties.com","company":null,"city":null,"state":"NC","county":"onslow","website":"https://www.landandfarmsrealty.com/agent/casey-davis","latitude":34.736606379999998,"longitude":-77.433448229999996}},{"type":"Feature","id":33,"geometry":{"type":"Point","coordinates":[-77.907320729999981,34.525498280000079]},"properties":{"OBJECTID":33,"unnamed__0":43,"full_name":"Casey Davis","contact_type":"Preferred SUB/Vendor; NC Land Broker","phone":"910-330-9506","email":"casey@mossyoakproperties.com","company":null,"city":null,"state":"NC","county":"pender","website":"https://www.landandfarmsrealty.com/agent/casey-davis","latitude":34.525498280000001,"longitude":-77.907320729999995}},{"type":"Feature","id":34,"geometry":{"type":"Point","coordinates":[-78.371285159999957,34.991367020000041]},"properties":{"OBJECTID":34,"unnamed__0":44,"full_name":"Casey Davis","contact_type":"Preferred SUB/Vendor; NC Land Broker","phone":"910-330-9506","email":"casey@mossyoakproperties.com","company":null,"city":null,"state":"NC","county":"sampson","website":"https://www.landandfarmsrealty.com/agent/casey-davis","latitude":34.991367019999998,"longitude":-78.371285159999999}},{"type":"Feature","id":35,"geometry":null,"properties":{"OBJECTID":35,"Shape":null,"unnamed__0":48,"full_name":"Cody Nuchols","contact_type":"Preferred SUB/Vendor; TN Land Broker","phone":"865.977.0770","email":"cody@codynuchols.com","company":null,"city":null,"state":"TN","county":null,"website":null,"latitude":null,"longitude":null}},{"type":"Feature","id":36,"geometry":{"type":"Point","coordinates":[-83.925515049999944,35.687204000000065]},"properties":{"OBJECTID":36,"unnamed__0":49,"full_name":"Cody Nuchols","contact_type":"Preferred SUB/Vendor; TN Land Broker","phone":"865.977.0770","email":"cody@codynuchols.com","company":null,"city":null,"state":"TN","county":"blount","website":null,"latitude":35.687204000000001,"longitude":-83.925515050000001}},{"type":"Feature","id":37,"geometry":{"type":"Point","coordinates":[-84.149428589999957,36.403486870000052]},"properties":{"OBJECTID":37,"unnamed__0":50,"full_name":"Cody Nuchols","contact_type":"Preferred SUB/Vendor; TN Land Broker","phone":"865.977.0770","email":"cody@codynuchols.com","company":null,"city":null,"state":"TN","county":"campbell","website":null,"latitude":36.403486870000002,"longitude":-84.149428589999999}},{"type":"Feature","id":38,"geometry":{"type":"Point","coordinates":[-83.121151389999966,35.925351670000055]},"properties":{"OBJECTID":38,"unnamed__0":51,"full_name":"Cody Nuchols","contact_type":"Preferred SUB/Vendor; TN Land Broker","phone":"865.977.0770","email":"cody@codynuchols.com","company":null,"city":null,"state":"TN","county":"cocke","website":null,"latitude":35.925351669999998,"longitude":-83.121151389999994}},{"type":"Feature","id":39,"geometry":{"type":"Point","coordinates":[-84.998349299999973,35.950366960000053]},"properties":{"OBJECTID":39,"unnamed__0":52,"full_name":"Cody Nuchols","contact_type":"Preferred SUB/Vendor; TN Land Broker","phone":"865.977.0770","email":"cody@codynuchols.com","company":null,"city":null,"state":"TN","county":"cumberland","website":null,"latitude":35.950366959999997,"longitude":-84.998349300000001}},{"type":"Feature","id":40,"geometry":{"type":"Point","coordinates":[-84.617499429999953,35.424692680000078]},"properties":{"OBJECTID":40,"unnamed__0":53,"full_name":"Cody Nuchols","contact_type":"Preferred SUB/Vendor; TN Land Broker","phone":"865.977.0770","email":"cody@codynuchols.com","company":null,"city":null,"state":"TN","county":"mcminn","website":null,"latitude":35.42469268,"longitude":-84.617499429999995}},{"type":"Feature","id":41,"geometry":{"type":"Point","coordinates":[-84.252715939999973,35.442658860000051]},"properties":{"OBJECTID":41,"unnamed__0":54,"full_name":"Cody Nuchols","contact_type":"Preferred SUB/Vendor; TN Land Broker","phone":"865.977.0770","email":"cody@codynuchols.com","company":null,"city":null,"state":"TN","county":"monroe","website":null,"latitude":35.442658860000002,"longitude":-84.252715940000002}},{"type":"Feature","id":42,"geometry":{"type":"Point","coordinates":[-85.495123489999969,36.140935290000073]},"properties":{"OBJECTID":42,"unnamed__0":55,"full_name":"Cody Nuchols","contact_type":"Preferred SUB/Vendor; TN Land Broker","phone":"865.977.0770","email":"cody@codynuchols.com","company":null,"city":null,"state":"TN","county":"putnam","website":null,"latitude":36.140935290000002,"longitude":-85.495123489999997}},{"type":"Feature","id":43,"geometry":{"type":"Point","coordinates":[-83.524134599999968,35.784597160000033]},"properties":{"OBJECTID":43,"unnamed__0":56,"full_name":"Cody Nuchols","contact_type":"Preferred SUB/Vendor; TN Land Broker","phone":"865.977.0770","email":"cody@codynuchols.com","company":null,"city":null,"state":"TN","county":"sevier","website":null,"latitude":35.784597159999997,"longitude":-83.524134599999996}},{"type":"Feature","id":44,"geometry":{"type":"Point","coordinates":[-85.455207849999965,35.926412650000032]},"properties":{"OBJECTID":44,"unnamed__0":57,"full_name":"Cody Nuchols","contact_type":"Preferred SUB/Vendor; TN Land Broker","phone":"865.977.0770","email":"cody@codynuchols.com","company":null,"city":null,"state":"TN","county":"white","website":null,"latitude":35.926412650000003,"longitude":-85.455207849999994}},{"type":"Feature","id":45,"geometry":{"type":"Point","coordinates":[-84.503433919999964,36.428436570000031]},"properties":{"OBJECTID":45,"unnamed__0":58,"full_name":"Danielle Lawson","contact_type":"Preferred SUB/Vendor; TN Land Broker","phone":"(423) 223-0930 ","email":"DanielleL2402@gmail.com","company":null,"city":null,"state":"TN","county":"scott","website":null,"latitude":36.428436570000002,"longitude":-84.503433920000006}},{"type":"Feature","id":46,"geometry":{"type":"Point","coordinates":[-84.149428589999957,36.403486870000052]},"properties":{"OBJECTID":46,"unnamed__0":59,"full_name":"Danielle Lawson","contact_type":"Preferred SUB/Vendor; TN Land Broker","phone":"(423) 223-0930 ","email":"DanielleL2402@gmail.com","company":null,"city":null,"state":"TN","county":"campbell","website":null,"latitude":36.403486870000002,"longitude":-84.149428589999999}},{"type":"Feature","id":47,"geometry":{"type":"Point","coordinates":[-84.649026249999963,36.134944520000033]},"properties":{"OBJECTID":47,"unnamed__0":60,"full_name":"Danielle Lawson","contact_type":"Preferred SUB/Vendor; TN Land Broker","phone":"(423) 223-0930 ","email":"DanielleL2402@gmail.com","company":null,"city":null,"state":"TN","county":"morgan","website":null,"latitude":36.134944519999998,"longitude":-84.649026250000006}},{"type":"Feature","id":48,"geometry":{"type":"Point","coordinates":[-84.932530829999962,36.380414260000066]},"properties":{"OBJECTID":48,"unnamed__0":61,"full_name":"Danielle Lawson","contact_type":"Preferred SUB/Vendor; TN Land Broker","phone":"(423) 223-0930 ","email":"DanielleL2402@gmail.com","company":null,"city":null,"state":"TN","county":"fentress","website":null,"latitude":36.380414260000002,"longitude":-84.932530830000005}},{"type":"Feature","id":49,"geometry":{"type":"Point","coordinates":[-83.937230119999981,35.993218090000028]},"properties":{"OBJECTID":49,"unnamed__0":62,"full_name":"Danielle Lawson","contact_type":"Preferred SUB/Vendor; TN Land Broker","phone":"(423) 223-0930 ","email":"DanielleL2402@gmail.com","company":null,"city":null,"state":"TN","county":"knox","website":null,"latitude":35.993218089999999,"longitude":-83.937230119999995}},{"type":"Feature","id":50,"geometry":null,"properties":{"OBJECTID":50,"Shape":null,"unnamed__0":63,"full_name":"Danielle Lawson","contact_type":"Preferred SUB/Vendor; TN Land Broker","phone":"(423) 223-0930 ","email":"DanielleL2402@gmail.com","company":null,"city":null,"state":"TN","county":null,"website":null,"latitude":null,"longitude":null}},{"type":"Feature","id":51,"geometry":{"type":"Point","coordinates":[-89.413826339999957,36.05904361000006]},"properties":{"OBJECTID":51,"unnamed__0":64,"full_name":"David Terry","contact_type":"Preferred SUB/Vendor; TN Land Broker","phone":"731 4450247","email":"thetristateagent@gmail.com","company":null,"city":null,"state":"TN","county":"dyer","website":null,"latitude":36.059043610000003,"longitude":-89.41382634}},{"type":"Feature","id":52,"geometry":{"type":"Point","coordinates":[-89.148861859999954,36.358214200000077]},"properties":{"OBJECTID":52,"unnamed__0":65,"full_name":"David Terry","contact_type":"Preferred SUB/Vendor; TN Land Broker","phone":"731 4450247","email":"thetristateagent@gmail.com","company":null,"city":null,"state":"TN","county":"obion","website":null,"latitude":36.358214199999999,"longitude":-89.148861859999997}},{"type":"Feature","id":53,"geometry":{"type":"Point","coordinates":[-88.71782060999999,36.298187620000078]},"properties":{"OBJECTID":53,"unnamed__0":66,"full_name":"David Terry","contact_type":"Preferred SUB/Vendor; TN Land Broker","phone":"731 4450247","email":"thetristateagent@gmail.com","company":null,"city":null,"state":"TN","county":"weakley","website":null,"latitude":36.29818762,"longitude":-88.717820610000004}},{"type":"Feature","id":54,"geometry":{"type":"Point","coordinates":[-89.493610879999949,36.335118950000037]},"properties":{"OBJECTID":54,"unnamed__0":67,"full_name":"David Terry","contact_type":"Preferred SUB/Vendor; TN Land Broker","phone":"731 4450247","email":"thetristateagent@gmail.com","company":null,"city":null,"state":"TN","county":"lake","website":null,"latitude":36.335118950000002,"longitude":-89.493610880000006}},{"type":"Feature","id":55,"geometry":{"type":"Point","coordinates":[-89.139433739999959,35.813553820000038]},"properties":{"OBJECTID":55,"unnamed__0":68,"full_name":"David Terry","contact_type":"Preferred SUB/Vendor; TN Land Broker","phone":"731 4450247","email":"thetristateagent@gmail.com","company":null,"city":null,"state":"TN","county":"crockett","website":null,"latitude":35.813553820000003,"longitude":-89.139433740000001}},{"type":"Feature","id":56,"geometry":{"type":"Point","coordinates":[-88.932516929999963,35.996509350000053]},"properties":{"OBJECTID":56,"unnamed__0":69,"full_name":"David Terry","contact_type":"Preferred SUB/Vendor; TN Land Broker","phone":"731 4450247","email":"thetristateagent@gmail.com","company":null,"city":null,"state":"TN","county":"gibson","website":null,"latitude":35.996509349999997,"longitude":-88.932516930000006}},{"type":"Feature","id":57,"geometry":{"type":"Point","coordinates":[-89.631506409999986,35.76091389000004]},"properties":{"OBJECTID":57,"unnamed__0":70,"full_name":"David Terry","contact_type":"Preferred SUB/Vendor; TN Land Broker","phone":"731 4450247","email":"thetristateagent@gmail.com","company":null,"city":null,"state":"TN","county":"lauderdale","website":null,"latitude":35.760913889999998,"longitude":-89.63150641}},{"type":"Feature","id":58,"geometry":{"type":"Point","coordinates":[-89.759462879999944,35.496703000000025]},"properties":{"OBJECTID":58,"unnamed__0":71,"full_name":"David Terry","contact_type":"Preferred SUB/Vendor; TN Land Broker","phone":"731 4450247","email":"thetristateagent@gmail.com","company":null,"city":null,"state":"TN","county":"tipton","website":null,"latitude":35.496702999999997,"longitude":-89.759462880000001}},{"type":"Feature","id":59,"geometry":{"type":"Point","coordinates":[-89.895682929999964,35.183631150000053]},"properties":{"OBJECTID":59,"unnamed__0":72,"full_name":"David Terry","contact_type":"Preferred SUB/Vendor; TN Land Broker","phone":"731 4450247","email":"thetristateagent@gmail.com","company":null,"city":null,"state":"TN","county":"shelby","website":null,"latitude":35.183631149999997,"longitude":-89.895682930000007}},{"type":"Feature","id":60,"geometry":null,"properties":{"OBJECTID":60,"Shape":null,"unnamed__0":73,"full_name":"David Terry","contact_type":"Preferred SUB/Vendor; TN Land Broker","phone":"731 4450247","email":"thetristateagent@gmail.com","company":null,"city":null,"state":"TN","county":"caroll","website":null,"latitude":null,"longitude":null}},{"type":"Feature","id":61,"geometry":{"type":"Point","coordinates":[-88.838581809999937,35.608103100000051]},"properties":{"OBJECTID":61,"unnamed__0":74,"full_name":"David Terry","contact_type":"Preferred SUB/Vendor; TN Land Broker","phone":"731 4450247","email":"thetristateagent@gmail.com","company":null,"city":null,"state":"TN","county":"madison","website":null,"latitude":35.608103100000001,"longitude":-88.838581809999994}},{"type":"Feature","id":62,"geometry":{"type":"Point","coordinates":[-89.283812119999936,35.583170860000052]},"properties":{"OBJECTID":62,"unnamed__0":75,"full_name":"David Terry","contact_type":"Preferred SUB/Vendor; TN Land Broker","phone":"731 4450247","email":"thetristateagent@gmail.com","company":null,"city":null,"state":"TN","county":"haywood","website":null,"latitude":35.583170860000003,"longitude":-89.283812119999993}},{"type":"Feature","id":63,"geometry":{"type":"Point","coordinates":[-89.414385299999935,35.196995580000078]},"properties":{"OBJECTID":63,"unnamed__0":76,"full_name":"David Terry","contact_type":"Preferred SUB/Vendor; TN Land Broker","phone":"731 4450247","email":"thetristateagent@gmail.com","company":null,"city":null,"state":"TN","county":"fayette","website":null,"latitude":35.196995579999999,"longitude":-89.414385300000006}},{"type":"Feature","id":64,"geometry":{"type":"Point","coordinates":[-88.301361949999944,36.331659670000079]},"properties":{"OBJECTID":64,"unnamed__0":77,"full_name":"David Terry","contact_type":"Preferred SUB/Vendor; TN Land Broker","phone":"731 4450247","email":"thetristateagent@gmail.com","company":null,"city":null,"state":"TN","county":"henry","website":null,"latitude":36.331659670000001,"longitude":-88.30136195}},{"type":"Feature","id":65,"geometry":{"type":"Point","coordinates":[-87.838474929999961,36.501138960000048]},"properties":{"OBJECTID":65,"unnamed__0":78,"full_name":"David Terry","contact_type":"Preferred SUB/Vendor; TN Land Broker","phone":"731 4450247","email":"thetristateagent@gmail.com","company":null,"city":null,"state":"TN","county":"stewart","website":null,"latitude":36.501138959999999,"longitude":-87.838474930000004}},{"type":"Feature","id":66,"geometry":{"type":"Point","coordinates":[-88.068340379999938,36.069583850000072]},"properties":{"OBJECTID":66,"unnamed__0":79,"full_name":"David Terry","contact_type":"Preferred SUB/Vendor; TN Land Broker","phone":"731 4450247","email":"thetristateagent@gmail.com","company":null,"city":null,"state":"TN","county":"benton","website":null,"latitude":36.069583850000001,"longitude":-88.068340379999995}},{"type":"Feature","id":67,"geometry":{"type":"Point","coordinates":[-88.993065299999955,35.206745850000061]},"properties":{"OBJECTID":67,"unnamed__0":80,"full_name":"David Terry","contact_type":"Preferred SUB/Vendor; TN Land Broker","phone":"731 4450247","email":"thetristateagent@gmail.com","company":null,"city":null,"state":"TN","county":"hardeman","website":null,"latitude":35.206745849999997,"longitude":-88.993065299999998}},{"type":"Feature","id":68,"geometry":{"type":"Point","coordinates":[-88.612952589999963,35.421104640000067]},"properties":{"OBJECTID":68,"unnamed__0":81,"full_name":"David Terry","contact_type":"Preferred SUB/Vendor; TN Land Broker","phone":"731 4450247","email":"thetristateagent@gmail.com","company":null,"city":null,"state":"TN","county":"chester","website":null,"latitude":35.421104640000003,"longitude":-88.612952590000006}},{"type":"Feature","id":69,"geometry":{"type":"Point","coordinates":[-88.563757459999977,35.174510760000032]},"properties":{"OBJECTID":69,"unnamed__0":82,"full_name":"David Terry","contact_type":"Preferred SUB/Vendor; TN Land Broker","phone":"731 4450247","email":"thetristateagent@gmail.com","company":null,"city":null,"state":"TN","county":"mcnairy","website":null,"latitude":35.174510759999997,"longitude":-88.563757460000005}},{"type":"Feature","id":70,"geometry":{"type":"Point","coordinates":[-88.184471159999987,35.19857539000003]},"properties":{"OBJECTID":70,"unnamed__0":83,"full_name":"David Terry","contact_type":"Preferred SUB/Vendor; TN Land Broker","phone":"731 4450247","email":"thetristateagent@gmail.com","company":null,"city":null,"state":"TN","county":"hardin","website":null,"latitude":35.198575390000002,"longitude":-88.184471160000001}},{"type":"Feature","id":71,"geometry":{"type":"Point","coordinates":[-88.387962339999945,35.654206370000054]},"properties":{"OBJECTID":71,"unnamed__0":84,"full_name":"David Terry","contact_type":"Preferred SUB/Vendor; TN Land Broker","phone":"731 4450247","email":"thetristateagent@gmail.com","company":null,"city":null,"state":"TN","county":"henderson","website":null,"latitude":35.654206369999997,"longitude":-88.387962340000001}},{"type":"Feature","id":72,"geometry":{"type":"Point","coordinates":[-88.108808729999964,35.602855050000073]},"properties":{"OBJECTID":72,"unnamed__0":85,"full_name":"David Terry","contact_type":"Preferred SUB/Vendor; TN Land Broker","phone":"731 4450247","email":"thetristateagent@gmail.com","company":null,"city":null,"state":"TN","county":"decatur","website":null,"latitude":35.602855050000002,"longitude":-88.108808730000007}},{"type":"Feature","id":73,"geometry":null,"properties":{"OBJECTID":73,"Shape":null,"unnamed__0":86,"full_name":"David Terry","contact_type":"Preferred SUB/Vendor; TN Land Broker","phone":"731 4450247","email":"thetristateagent@gmail.com","company":null,"city":null,"state":"TN","county":"humphries","website":null,"latitude":null,"longitude":null}},{"type":"Feature","id":74,"geometry":{"type":"Point","coordinates":[-87.717069659999936,36.286023030000024]},"properties":{"OBJECTID":74,"unnamed__0":87,"full_name":"David Terry","contact_type":"Preferred SUB/Vendor; TN Land Broker","phone":"731 4450247","email":"thetristateagent@gmail.com","company":null,"city":null,"state":"TN","county":"houston","website":null,"latitude":36.286023030000003,"longitude":-87.717069660000007}},{"type":"Feature","id":75,"geometry":{"type":"Point","coordinates":[-82.530125089999956,35.611212780000074]},"properties":{"OBJECTID":75,"unnamed__0":88,"full_name":"Dylan Lennon","contact_type":"Preferred SUB/Vendor; NC Land Broker","phone":"828-412-0678","email":"dylan@revelrec.com; chris@revelrec.com","company":null,"city":null,"state":"NC","county":"buncombe","website":null,"latitude":35.611212780000002,"longitude":-82.530125089999999}},{"type":"Feature","id":76,"geometry":{"type":"Point","coordinates":[-82.479924229999938,35.336255140000048]},"properties":{"OBJECTID":76,"unnamed__0":89,"full_name":"Dylan Lennon","contact_type":"Preferred SUB/Vendor; NC Land Broker","phone":"828-412-0678","email":"dylan@revelrec.com; chris@revelrec.com","company":null,"city":null,"state":"NC","county":"henderson","website":null,"latitude":35.336255139999999,"longitude":-82.479924229999995}},{"type":"Feature","id":77,"geometry":{"type":"Point","coordinates":[-82.798398559999953,35.202102660000037]},"properties":{"OBJECTID":77,"unnamed__0":90,"full_name":"Dylan Lennon","contact_type":"Preferred SUB/Vendor; NC Land Broker","phone":"828-412-0678","email":"dylan@revelrec.com; chris@revelrec.com","company":null,"city":null,"state":"NC","county":"transylvania","website":null,"latitude":35.202102660000001,"longitude":-82.798398559999995}},{"type":"Feature","id":78,"geometry":{"type":"Point","coordinates":[-82.705838549999953,35.858069730000068]},"properties":{"OBJECTID":78,"unnamed__0":91,"full_name":"Dylan Lennon","contact_type":"Preferred SUB/Vendor; NC Land Broker","phone":"828-412-0678","email":"dylan@revelrec.com; chris@revelrec.com","company":null,"city":null,"state":"NC","county":"madison","website":null,"latitude":35.858069729999997,"longitude":-82.705838549999996}},{"type":"Feature","id":79,"geometry":{"type":"Point","coordinates":[-82.982077379999964,35.555925940000066]},"properties":{"OBJECTID":79,"unnamed__0":92,"full_name":"Dylan Lennon","contact_type":"Preferred SUB/Vendor; NC Land Broker","phone":"828-412-0678","email":"dylan@revelrec.com; chris@revelrec.com","company":null,"city":null,"state":"NC","county":"haywood","website":null,"latitude":35.555925940000002,"longitude":-82.982077380000007}},{"type":"Feature","id":80,"geometry":{"type":"Point","coordinates":[-77.374582539999949,35.593418070000041]},"properties":{"OBJECTID":80,"unnamed__0":93,"full_name":"Gary Foote","contact_type":"Preferred SUB/Vendor; NC Land Broker","phone":"252-245-0425","email":"garyfooterealtornc@gmail.com","company":null,"city":"Farmville","state":"NC","county":"pitt","website":null,"latitude":35.593418069999998,"longitude":-77.374582540000006}},{"type":"Feature","id":81,"geometry":{"type":"Point","coordinates":[-77.096241119999945,35.125502320000066]},"properties":{"OBJECTID":81,"unnamed__0":94,"full_name":"Gary Foote","contact_type":"Preferred SUB/Vendor; NC Land Broker","phone":"252-245-0425","email":"garyfooterealtornc@gmail.com","company":null,"city":"Farmville","state":"NC","county":"craven","website":null,"latitude":35.125502320000002,"longitude":-77.096241120000002}},{"type":"Feature","id":82,"geometry":{"type":"Point","coordinates":[-77.918651059999945,35.705028610000056]},"properties":{"OBJECTID":82,"unnamed__0":95,"full_name":"Gary Foote","contact_type":"Preferred SUB/Vendor; NC Land Broker","phone":"252-245-0425","email":"garyfooterealtornc@gmail.com","company":null,"city":"Farmville","state":"NC","county":"wilson","website":null,"latitude":35.705028609999999,"longitude":-77.918651060000002}},{"type":"Feature","id":83,"geometry":{"type":"Point","coordinates":[-77.675843129999976,35.485381510000025]},"properties":{"OBJECTID":83,"unnamed__0":96,"full_name":"Gary Foote","contact_type":"Preferred SUB/Vendor; NC Land Broker","phone":"252-245-0425","email":"garyfooterealtornc@gmail.com","company":null,"city":"Farmville","state":"NC","county":"greene","website":null,"latitude":35.485381510000003,"longitude":-77.675843130000004}},{"type":"Feature","id":84,"geometry":{"type":"Point","coordinates":[-77.106861519999939,35.841600480000068]},"properties":{"OBJECTID":84,"unnamed__0":97,"full_name":"Gary Foote","contact_type":"Preferred SUB/Vendor; NC Land Broker","phone":"252-245-0425","email":"garyfooterealtornc@gmail.com","company":null,"city":"Farmville","state":"NC","county":"martin","website":null,"latitude":35.841600479999997,"longitude":-77.106861519999995}},{"type":"Feature","id":85,"geometry":{"type":"Point","coordinates":[-77.597058259999983,35.912898510000048]},"properties":{"OBJECTID":85,"unnamed__0":98,"full_name":"Gary Foote","contact_type":"Preferred SUB/Vendor; NC Land Broker","phone":"252-245-0425","email":"garyfooterealtornc@gmail.com","company":null,"city":"Farmville","state":"NC","county":"edgecombe","website":null,"latitude":35.912898509999998,"longitude":-77.597058259999997}},{"type":"Feature","id":86,"geometry":{"type":"Point","coordinates":[-77.986679799999933,35.967124520000027]},"properties":{"OBJECTID":86,"unnamed__0":99,"full_name":"Gary Foote","contact_type":"Preferred SUB/Vendor; NC Land Broker","phone":"252-245-0425","email":"garyfooterealtornc@gmail.com","company":null,"city":"Farmville","state":"NC","county":"nash","website":null,"latitude":35.967124519999999,"longitude":-77.986679800000005}},{"type":"Feature","id":87,"geometry":{"type":"Point","coordinates":[-76.863027599999953,35.494483560000049]},"properties":{"OBJECTID":87,"unnamed__0":100,"full_name":"Gary Foote","contact_type":"Preferred SUB/Vendor; NC Land Broker","phone":"252-245-0425","email":"garyfooterealtornc@gmail.com","company":null,"city":"Farmville","state":"NC","county":"beaufort","website":null,"latitude":35.494483559999999,"longitude":-76.863027599999995}},{"type":"Feature","id":88,"geometry":{"type":"Point","coordinates":[-76.749246209999967,35.123985110000035]},"properties":{"OBJECTID":88,"unnamed__0":101,"full_name":"Gary Foote","contact_type":"Preferred SUB/Vendor; NC Land Broker","phone":"252-245-0425","email":"garyfooterealtornc@gmail.com","company":null,"city":"Farmville","state":"NC","county":"pamlico","website":null,"latitude":35.12398511,"longitude":-76.749246209999995}},{"type":"Feature","id":89,"geometry":{"type":"Point","coordinates":[-78.004204629999947,35.363688870000033]},"properties":{"OBJECTID":89,"unnamed__0":102,"full_name":"Gary Foote","contact_type":"Preferred SUB/Vendor; NC Land Broker","phone":"252-245-0425","email":"garyfooterealtornc@gmail.com","company":null,"city":"Farmville","state":"NC","county":"wayne","website":null,"latitude":35.363688869999997,"longitude":-78.004204630000004}},{"type":"Feature","id":90,"geometry":{"type":"Point","coordinates":[-77.641335989999959,35.239088940000045]},"properties":{"OBJECTID":90,"unnamed__0":103,"full_name":"Gary Foote","contact_type":"Preferred SUB/Vendor; NC Land Broker","phone":"252-245-0425","email":"garyfooterealtornc@gmail.com","company":null,"city":"Farmville","state":"NC","county":"lenoir","website":null,"latitude":35.239088940000002,"longitude":-77.641335990000002}},{"type":"Feature","id":91,"geometry":{"type":"Point","coordinates":[-76.247982709999974,35.531757560000074]},"properties":{"OBJECTID":91,"unnamed__0":104,"full_name":"Gary Foote","contact_type":"Preferred SUB/Vendor; NC Land Broker","phone":"252-245-0425","email":"garyfooterealtornc@gmail.com","company":null,"city":"Farmville","state":"NC","county":"hyde","website":null,"latitude":35.531757560000003,"longitude":-76.247982710000002}},{"type":"Feature","id":92,"geometry":{"type":"Point","coordinates":[-76.980027629999938,36.067954530000065]},"properties":{"OBJECTID":92,"unnamed__0":105,"full_name":"Gary Foote","contact_type":"Preferred SUB/Vendor; NC Land Broker","phone":"252-245-0425","email":"garyfooterealtornc@gmail.com","company":null,"city":"Farmville","state":"NC","county":"bertie","website":null,"latitude":36.067954530000002,"longitude":-76.980027629999995}},{"type":"Feature","id":93,"geometry":{"type":"Point","coordinates":[-77.651592099999959,36.257468260000053]},"properties":{"OBJECTID":93,"unnamed__0":106,"full_name":"Gary Foote","contact_type":"Preferred SUB/Vendor; NC Land Broker","phone":"252-245-0425","email":"garyfooterealtornc@gmail.com","company":null,"city":"Farmville","state":"NC","county":"halifax","website":null,"latitude":36.257468260000003,"longitude":-77.651592100000002}},{"type":"Feature","id":94,"geometry":{"type":"Point","coordinates":[-76.576784299999986,35.822082030000047]},"properties":{"OBJECTID":94,"unnamed__0":107,"full_name":"Gary Foote","contact_type":"Preferred SUB/Vendor; NC Land Broker","phone":"252-245-0425","email":"garyfooterealtornc@gmail.com","company":null,"city":"Farmville","state":"NC","county":"washington","website":null,"latitude":35.822082029999997,"longitude":-76.5767843}},{"type":"Feature","id":95,"geometry":{"type":"Point","coordinates":[-76.670587049999938,34.830535010000062]},"properties":{"OBJECTID":95,"unnamed__0":108,"full_name":"Gary Foote","contact_type":"Preferred SUB/Vendor; NC Land Broker","phone":"252-245-0425","email":"garyfooterealtornc@gmail.com","company":null,"city":"Farmville","state":"NC","county":"carteret","website":null,"latitude":34.830535009999998,"longitude":-76.670587049999995}},{"type":"Feature","id":96,"geometry":{"type":"Point","coordinates":[-88.563757459999977,35.174510760000032]},"properties":{"OBJECTID":96,"unnamed__0":113,"full_name":"Hayden Reed","contact_type":"Preferred SUB/Vendor; TN Land Broker","phone":"2563838990","email":"soldbyhayden@southmainrealty.com","company":"Sound Main Land Realty","city":null,"state":"TN","county":"mcnairy","website":null,"latitude":35.174510759999997,"longitude":-88.563757460000005}},{"type":"Feature","id":97,"geometry":{"type":"Point","coordinates":[-88.184471159999987,35.19857539000003]},"properties":{"OBJECTID":97,"unnamed__0":114,"full_name":"Hayden Reed","contact_type":"Preferred SUB/Vendor; TN Land Broker","phone":"2563838990","email":"soldbyhayden@southmainrealty.com","company":"Sound Main Land Realty","city":null,"state":"TN","county":"hardin","website":null,"latitude":35.198575390000002,"longitude":-88.184471160000001}},{"type":"Feature","id":98,"geometry":{"type":"Point","coordinates":[-87.787990699999966,35.239760410000031]},"properties":{"OBJECTID":98,"unnamed__0":115,"full_name":"Hayden Reed","contact_type":"Preferred SUB/Vendor; TN Land Broker","phone":"2563838990","email":"soldbyhayden@southmainrealty.com","company":"Sound Main Land Realty","city":null,"state":"TN","county":"wayne","website":null,"latitude":35.239760410000002,"longitude":-87.787990699999995}},{"type":"Feature","id":99,"geometry":{"type":"Point","coordinates":[-87.395616039999936,35.217160430000035]},"properties":{"OBJECTID":99,"unnamed__0":116,"full_name":"Hayden Reed","contact_type":"Preferred SUB/Vendor; TN Land Broker","phone":"2563838990","email":"soldbyhayden@southmainrealty.com","company":"Sound Main Land Realty","city":null,"state":"TN","county":"lawrence","website":null,"latitude":35.21716043,"longitude":-87.395616039999993}},{"type":"Feature","id":100,"geometry":{"type":"Point","coordinates":[-87.034727209999971,35.20203336000003]},"properties":{"OBJECTID":100,"unnamed__0":117,"full_name":"Hayden Reed","contact_type":"Preferred SUB/Vendor; TN Land Broker","phone":"2563838990","email":"soldbyhayden@southmainrealty.com","company":"Sound Main Land Realty","city":null,"state":"TN","county":"giles","website":null,"latitude":35.202033360000001,"longitude":-87.03472721}},{"type":"Feature","id":101,"geometry":{"type":"Point","coordinates":[-86.765064679999966,35.468723400000044]},"properties":{"OBJECTID":101,"unnamed__0":118,"full_name":"Hayden Reed","contact_type":"Preferred SUB/Vendor; TN Land Broker","phone":"2563838990","email":"soldbyhayden@southmainrealty.com","company":"Sound Main Land Realty","city":null,"state":"TN","county":"marshall","website":null,"latitude":35.468723400000002,"longitude":-86.765064679999995}},{"type":"Feature","id":102,"geometry":{"type":"Point","coordinates":[-87.077002289999939,35.616888920000065]},"properties":{"OBJECTID":102,"unnamed__0":119,"full_name":"Hayden Reed","contact_type":"Preferred SUB/Vendor; TN Land Broker","phone":"2563838990","email":"soldbyhayden@southmainrealty.com","company":"Sound Main Land Realty","city":null,"state":"TN","county":"maury","website":null,"latitude":35.616888920000001,"longitude":-87.077002289999996}},{"type":"Feature","id":103,"geometry":{"type":"Point","coordinates":[-87.493098349999968,35.527281660000028]},"properties":{"OBJECTID":103,"unnamed__0":120,"full_name":"Hayden Reed","contact_type":"Preferred SUB/Vendor; TN Land Broker","phone":"2563838990","email":"soldbyhayden@southmainrealty.com","company":"Sound Main Land Realty","city":null,"state":"TN","county":"lewis","website":null,"latitude":35.52728166,"longitude":-87.493098349999997}},{"type":"Feature","id":104,"geometry":{"type":"Point","coordinates":[-87.473374409999963,35.803213500000027]},"properties":{"OBJECTID":104,"unnamed__0":121,"full_name":"Hayden Reed","contact_type":"Preferred SUB/Vendor; TN Land Broker","phone":"2563838990","email":"soldbyhayden@southmainrealty.com","company":"Sound Main Land Realty","city":null,"state":"TN","county":"hickman","website":null,"latitude":35.803213499999998,"longitude":-87.473374410000005}},{"type":"Feature","id":105,"geometry":{"type":"Point","coordinates":[-86.898519849999957,35.893766630000073]},"properties":{"OBJECTID":105,"unnamed__0":122,"full_name":"Hayden Reed","contact_type":"Preferred SUB/Vendor; TN Land Broker","phone":"2563838990","email":"soldbyhayden@southmainrealty.com","company":"Sound Main Land Realty","city":null,"state":"TN","county":"williamson","website":null,"latitude":35.893766630000002,"longitude":-86.89851985}},{"type":"Feature","id":106,"geometry":{"type":"Point","coordinates":[-88.068340379999938,36.069583850000072]},"properties":{"OBJECTID":106,"unnamed__0":123,"full_name":"Hayden Reed","contact_type":"Preferred SUB/Vendor; TN Land Broker","phone":"2563838990","email":"soldbyhayden@southmainrealty.com","company":"Sound Main Land Realty","city":null,"state":"TN","county":"benton","website":null,"latitude":36.069583850000001,"longitude":-88.068340379999995}},{"type":"Feature","id":107,"geometry":{"type":"Point","coordinates":[-84.155411579999964,33.453324640000062]},"properties":{"OBJECTID":107,"unnamed__0":124,"full_name":"Hollie Greene","contact_type":"Preferred SUB/Vendor; GA Land Broker","phone":"706-224-3099","email":"hollie@thewsrg.com","company":null,"city":null,"state":"GA","county":"henry","website":null,"latitude":33.453324639999998,"longitude":-84.155411580000006}},{"type":"Feature","id":108,"geometry":{"type":"Point","coordinates":[-83.37287385999997,33.321768210000073]},"properties":{"OBJECTID":108,"unnamed__0":125,"full_name":"Hollie Greene","contact_type":"Preferred SUB/Vendor; GA Land Broker","phone":"706-224-3099","email":"hollie@thewsrg.com","company":null,"city":null,"state":"GA","county":"putnam","website":null,"latitude":33.321768210000002,"longitude":-83.372873859999999}},{"type":"Feature","id":109,"geometry":{"type":"Point","coordinates":[-83.166688989999955,33.578796970000042]},"properties":{"OBJECTID":109,"unnamed__0":126,"full_name":"Hollie Greene","contact_type":"Preferred SUB/Vendor; GA Land Broker","phone":"706-224-3099","email":"hollie@thewsrg.com","company":null,"city":null,"state":"GA","county":"greene","website":null,"latitude":33.578796969999999,"longitude":-83.166688989999997}},{"type":"Feature","id":110,"geometry":{"type":"Point","coordinates":[-83.492378779999967,33.590803890000075]},"properties":{"OBJECTID":110,"unnamed__0":127,"full_name":"Hollie Greene","contact_type":"Preferred SUB/Vendor; GA Land Broker","phone":"706-224-3099","email":"hollie@thewsrg.com","company":null,"city":null,"state":"GA","county":"morgan","website":null,"latitude":33.590803889999997,"longitude":-83.492378779999996}},{"type":"Feature","id":111,"geometry":{"type":"Point","coordinates":[-83.43691556999994,33.834918280000068]},"properties":{"OBJECTID":111,"unnamed__0":128,"full_name":"Hollie Greene","contact_type":"Preferred SUB/Vendor; GA Land Broker","phone":"706-224-3099","email":"hollie@thewsrg.com","company":null,"city":null,"state":"GA","county":"oconee","website":null,"latitude":33.834918279999997,"longitude":-83.436915569999996}},{"type":"Feature","id":112,"geometry":{"type":"Point","coordinates":[-83.367433499999947,33.951256340000043]},"properties":{"OBJECTID":112,"unnamed__0":129,"full_name":"Hollie Greene","contact_type":"Preferred SUB/Vendor; GA Land Broker","phone":"706-224-3099","email":"hollie@thewsrg.com","company":null,"city":null,"state":"GA","county":"clarke","website":null,"latitude":33.95125634,"longitude":-83.367433500000004}},{"type":"Feature","id":113,"geometry":{"type":"Point","coordinates":[-83.850203239999985,33.555019880000032]},"properties":{"OBJECTID":113,"unnamed__0":130,"full_name":"Hollie Greene","contact_type":"Preferred SUB/Vendor; GA Land Broker","phone":"706-224-3099","email":"hollie@thewsrg.com","company":null,"city":null,"state":"GA","county":"newton","website":null,"latitude":33.555019880000003,"longitude":-83.850203239999999}},{"type":"Feature","id":114,"geometry":{"type":"Point","coordinates":[-84.026711229999989,33.654249880000066]},"properties":{"OBJECTID":114,"unnamed__0":131,"full_name":"Hollie Greene","contact_type":"Preferred SUB/Vendor; GA Land Broker","phone":"706-224-3099","email":"hollie@thewsrg.com","company":null,"city":null,"state":"GA","county":"rockdale","website":null,"latitude":33.654249880000002,"longitude":-84.026711230000004}},{"type":"Feature","id":115,"geometry":{"type":"Point","coordinates":[-83.208997049999937,34.127922450000028]},"properties":{"OBJECTID":115,"unnamed__0":132,"full_name":"Hollie Greene","contact_type":"Preferred SUB/Vendor; GA Land Broker","phone":"706-224-3099","email":"hollie@thewsrg.com","company":null,"city":null,"state":"GA","county":"madison","website":null,"latitude":34.12792245,"longitude":-83.208997049999994}},{"type":"Feature","id":116,"geometry":{"type":"Point","coordinates":[-83.712645929999951,33.993236890000048]},"properties":{"OBJECTID":116,"unnamed__0":133,"full_name":"Hollie Greene","contact_type":"Preferred SUB/Vendor; GA Land Broker","phone":"706-224-3099","email":"hollie@thewsrg.com","company":null,"city":null,"state":"GA","county":"barrow","website":null,"latitude":33.993236889999999,"longitude":-83.712645929999994}},{"type":"Feature","id":117,"geometry":{"type":"Point","coordinates":[-84.02359088999998,33.961658420000049]},"properties":{"OBJECTID":117,"unnamed__0":134,"full_name":"Hollie Greene","contact_type":"Preferred SUB/Vendor; GA Land Broker","phone":"706-224-3099","email":"hollie@thewsrg.com","company":null,"city":null,"state":"GA","county":"gwinnett","website":null,"latitude":33.961658419999999,"longitude":-84.023590889999994}},{"type":"Feature","id":118,"geometry":{"type":"Point","coordinates":[-84.576738889999945,33.941404360000035]},"properties":{"OBJECTID":118,"unnamed__0":135,"full_name":"Hollie Greene","contact_type":"Preferred SUB/Vendor; GA Land Broker","phone":"706-224-3099","email":"hollie@thewsrg.com","company":null,"city":null,"state":"GA","county":"cobb","website":null,"latitude":33.94140436,"longitude":-84.576738890000001}},{"type":"Feature","id":119,"geometry":{"type":"Point","coordinates":[-84.467572539999935,33.789977460000046]},"properties":{"OBJECTID":119,"unnamed__0":136,"full_name":"Hollie Greene","contact_type":"Preferred SUB/Vendor; GA Land Broker","phone":"706-224-3099","email":"hollie@thewsrg.com","company":null,"city":null,"state":"GA","county":"fulton","website":null,"latitude":33.789977460000003,"longitude":-84.467572540000006}},{"type":"Feature","id":120,"geometry":{"type":"Point","coordinates":[-84.357701169999984,33.541903500000046]},"properties":{"OBJECTID":120,"unnamed__0":137,"full_name":"Hollie Greene","contact_type":"Preferred SUB/Vendor; GA Land Broker","phone":"706-224-3099","email":"hollie@thewsrg.com","company":null,"city":null,"state":"GA","county":"clayton","website":null,"latitude":33.541903499999997,"longitude":-84.357701169999999}},{"type":"Feature","id":121,"geometry":{"type":"Point","coordinates":[-83.957238319999988,33.289116480000075]},"properties":{"OBJECTID":121,"unnamed__0":138,"full_name":"Hollie Greene","contact_type":"Preferred SUB/Vendor; GA Land Broker","phone":"706-224-3099","email":"hollie@thewsrg.com","company":null,"city":null,"state":"GA","county":"butts","website":null,"latitude":33.289116479999997,"longitude":-83.957238320000002}},{"type":"Feature","id":122,"geometry":{"type":"Point","coordinates":[-84.226296399999967,33.771511840000073]},"properties":{"OBJECTID":122,"unnamed__0":139,"full_name":"Hollie Greene","contact_type":"Preferred SUB/Vendor; GA Land Broker","phone":"706-224-3099","email":"hollie@thewsrg.com","company":null,"city":null,"state":"GA","county":"dekalb","website":null,"latitude":33.771511840000002,"longitude":-84.226296399999995}},{"type":"Feature","id":123,"geometry":{"type":"Point","coordinates":[-83.733819549999964,33.781562100000031]},"properties":{"OBJECTID":123,"unnamed__0":140,"full_name":"Hollie Greene","contact_type":"Preferred SUB/Vendor; GA Land Broker","phone":"706-224-3099","email":"hollie@thewsrg.com","company":null,"city":null,"state":"GA","county":"walton","website":null,"latitude":33.781562100000002,"longitude":-83.733819550000007}},{"type":"Feature","id":124,"geometry":{"type":"Point","coordinates":[-84.284132829999976,33.260898460000078]},"properties":{"OBJECTID":124,"unnamed__0":141,"full_name":"Hollie Greene","contact_type":"Preferred SUB/Vendor; GA Land Broker","phone":"706-224-3099","email":"hollie@thewsrg.com","company":null,"city":null,"state":"GA","county":"spalding","website":null,"latitude":33.26089846,"longitude":-84.284132830000004}},{"type":"Feature","id":125,"geometry":{"type":"Point","coordinates":[-83.688149179999982,33.31635945000005]},"properties":{"OBJECTID":125,"unnamed__0":142,"full_name":"Hollie Greene","contact_type":"Preferred SUB/Vendor; GA Land Broker","phone":"706-224-3099","email":"hollie@thewsrg.com","company":null,"city":null,"state":"GA","county":"jasper","website":null,"latitude":33.31635945,"longitude":-83.688149179999996}},{"type":"Feature","id":126,"geometry":{"type":"Point","coordinates":[-83.229284069999949,34.375425540000037]},"properties":{"OBJECTID":126,"unnamed__0":143,"full_name":"Hollie Greene","contact_type":"Preferred SUB/Vendor; GA Land Broker","phone":"706-224-3099","email":"hollie@thewsrg.com","company":null,"city":null,"state":"GA","county":"franklin","website":null,"latitude":34.375425540000002,"longitude":-83.229284070000006}},{"type":"Feature","id":127,"geometry":{"type":"Point","coordinates":[-81.500308619999942,36.434117240000035]},"properties":{"OBJECTID":127,"unnamed__0":144,"full_name":"Jennifer Price","contact_type":"Preferred SUB/Vendor; NC Land Broker","phone":"336-467-3416","email":"Japrice934@gmail.com","company":null,"city":null,"state":"NC","county":"ashe","website":null,"latitude":36.434117239999999,"longitude":-81.500308619999998}},{"type":"Feature","id":128,"geometry":{"type":"Point","coordinates":[-81.12716858999994,36.491353170000025]},"properties":{"OBJECTID":128,"unnamed__0":145,"full_name":"Jennifer Price","contact_type":"Preferred SUB/Vendor; NC Land Broker","phone":"336-467-3416","email":"Japrice934@gmail.com","company":null,"city":null,"state":"NC","county":"alleghany","website":null,"latitude":36.491353169999996,"longitude":-81.127168589999997}},{"type":"Feature","id":129,"geometry":{"type":"Point","coordinates":[-81.696323839999934,36.231091380000066]},"properties":{"OBJECTID":129,"unnamed__0":146,"full_name":"Jennifer Price","contact_type":"Preferred SUB/Vendor; NC Land Broker","phone":"336-467-3416","email":"Japrice934@gmail.com","company":null,"city":null,"state":"NC","county":"watauga","website":null,"latitude":36.231091380000002,"longitude":-81.696323840000005}},{"type":"Feature","id":130,"geometry":{"type":"Point","coordinates":[-81.922478799999965,36.076555830000075]},"properties":{"OBJECTID":130,"unnamed__0":147,"full_name":"Jennifer Price","contact_type":"Preferred SUB/Vendor; NC Land Broker","phone":"336-467-3416","email":"Japrice934@gmail.com","company":null,"city":null,"state":"NC","county":"avery","website":null,"latitude":36.076555829999997,"longitude":-81.922478799999993}},{"type":"Feature","id":131,"geometry":{"type":"Point","coordinates":[-81.162989379999942,36.206191730000057]},"properties":{"OBJECTID":131,"unnamed__0":148,"full_name":"Jennifer Price","contact_type":"Preferred SUB/Vendor; NC Land Broker","phone":"336-467-3416","email":"Japrice934@gmail.com","company":null,"city":null,"state":"NC","county":"wilkes","website":null,"latitude":36.20619173,"longitude":-81.162989379999999}},{"type":"Feature","id":132,"geometry":{"type":"Point","coordinates":[-80.687470039999937,36.414668780000056]},"properties":{"OBJECTID":132,"unnamed__0":149,"full_name":"Jennifer Price","contact_type":"Preferred SUB/Vendor; NC Land Broker","phone":"336-467-3416","email":"Japrice934@gmail.com","company":null,"city":null,"state":"NC","county":"surry","website":null,"latitude":36.41466878,"longitude":-80.687470039999994}},{"type":"Feature","id":133,"geometry":{"type":"Point","coordinates":[-81.546447599999965,35.95292296000008]},"properties":{"OBJECTID":133,"unnamed__0":150,"full_name":"Jennifer Price","contact_type":"Preferred SUB/Vendor; NC Land Broker","phone":"336-467-3416","email":"Japrice934@gmail.com","company":null,"city":null,"state":"NC","county":"caldwell","website":null,"latitude":35.952922960000002,"longitude":-81.546447599999993}},{"type":"Feature","id":134,"geometry":{"type":"Point","coordinates":[-83.837513199999989,36.287831840000024]},"properties":{"OBJECTID":134,"unnamed__0":151,"full_name":"JP Payne","contact_type":"Preferred SUB/Vendor; TN Soil Scientist/Perc Testing Company","phone":"865-964-3465","email":"jpayne180@gmail.com","company":null,"city":null,"state":"TN","county":"union","website":null,"latitude":36.287831840000003,"longitude":-83.837513200000004}},{"type":"Feature","id":135,"geometry":{"type":"Point","coordinates":[-81.894316669999967,26.906976540000073]},"properties":{"OBJECTID":135,"unnamed__0":160,"full_name":"Lisa Gonzalez","contact_type":"Preferred SUB/Vendor; FL Land Broker","phone":"386-717-9390","email":null,"company":null,"city":null,"state":"FL","county":"charlotte","website":null,"latitude":26.906976539999999,"longitude":-81.894316669999995}},{"type":"Feature","id":136,"geometry":{"type":"Point","coordinates":[-81.192243399999938,29.060384760000034]},"properties":{"OBJECTID":136,"unnamed__0":161,"full_name":"Lisa Gonzalez","contact_type":"Preferred SUB/Vendor; FL Land Broker","phone":"386-717-9390","email":null,"company":null,"city":null,"state":"FL","county":"volusia","website":null,"latitude":29.060384760000002,"longitude":-81.192243399999995}},{"type":"Feature","id":137,"geometry":{"type":"Point","coordinates":[-81.821533039999963,26.578135510000038]},"properties":{"OBJECTID":137,"unnamed__0":162,"full_name":"Lisa Gonzalez","contact_type":"Preferred SUB/Vendor; FL Land Broker","phone":"386-717-9390","email":null,"company":null,"city":null,"state":"FL","county":"lee","website":null,"latitude":26.578135509999999,"longitude":-81.821533040000006}},{"type":"Feature","id":138,"geometry":{"type":"Point","coordinates":[-86.784764699999982,36.169320390000053]},"properties":{"OBJECTID":138,"unnamed__0":163,"full_name":"Marcus Heflin","contact_type":"Preferred SUB/Vendor; TN Land Broker","phone":"6156427047","email":"marcusheflin@kw.com","company":null,"city":null,"state":"TN","county":"davidson","website":null,"latitude":36.169320390000003,"longitude":-86.784764699999997}},{"type":"Feature","id":139,"geometry":{"type":"Point","coordinates":[-86.460449849999975,36.469351740000036]},"properties":{"OBJECTID":139,"unnamed__0":164,"full_name":"Marcus Heflin","contact_type":"Preferred SUB/Vendor; TN Land Broker","phone":"6156427047","email":"marcusheflin@kw.com","company":null,"city":null,"state":"TN","county":"sumner","website":null,"latitude":36.46935174,"longitude":-86.460449850000003}},{"type":"Feature","id":140,"geometry":{"type":"Point","coordinates":[-86.29748957999999,36.154812050000032]},"properties":{"OBJECTID":140,"unnamed__0":165,"full_name":"Marcus Heflin","contact_type":"Preferred SUB/Vendor; TN Land Broker","phone":"6156427047","email":"marcusheflin@kw.com","company":null,"city":null,"state":"TN","county":"wilson","website":null,"latitude":36.154812049999997,"longitude":-86.297489580000004}},{"type":"Feature","id":141,"geometry":{"type":"Point","coordinates":[-86.898519849999957,35.893766630000073]},"properties":{"OBJECTID":141,"unnamed__0":166,"full_name":"Marcus Heflin","contact_type":"Preferred SUB/Vendor; TN Land Broker","phone":"6156427047","email":"marcusheflin@kw.com","company":null,"city":null,"state":"TN","county":"williamson","website":null,"latitude":35.893766630000002,"longitude":-86.89851985}},{"type":"Feature","id":142,"geometry":{"type":"Point","coordinates":[-86.416687069999966,35.842613780000079]},"properties":{"OBJECTID":142,"unnamed__0":167,"full_name":"Marcus Heflin","contact_type":"Preferred SUB/Vendor; TN Land Broker","phone":"6156427047","email":"marcusheflin@kw.com","company":null,"city":null,"state":"TN","county":"rutherford","website":null,"latitude":35.842613780000001,"longitude":-86.416687069999995}},{"type":"Feature","id":143,"geometry":{"type":"Point","coordinates":[-78.244535799999937,34.074774710000042]},"properties":{"OBJECTID":143,"unnamed__0":168,"full_name":"Marty Lanier","contact_type":"Preferred SUB/Vendor; NC Land Broker; SC Land Broker","phone":"910-617-4326","email":"marty@rockcreeklandcompany.com","company":"Rock Creek Land Company","city":null,"state":"NC","county":"brunswick","website":null,"latitude":34.07477471,"longitude":-78.244535799999994}},{"type":"Feature","id":144,"geometry":{"type":"Point","coordinates":[-77.907320729999981,34.525498280000079]},"properties":{"OBJECTID":144,"unnamed__0":169,"full_name":"Marty Lanier","contact_type":"Preferred SUB/Vendor; NC Land Broker; SC Land Broker","phone":"910-617-4326","email":"marty@rockcreeklandcompany.com","company":"Rock Creek Land Company","city":null,"state":"NC","county":"pender","website":null,"latitude":34.525498280000001,"longitude":-77.907320729999995}},{"type":"Feature","id":145,"geometry":{"type":"Point","coordinates":[-78.65507877999994,34.265475590000051]},"properties":{"OBJECTID":145,"unnamed__0":170,"full_name":"Marty Lanier","contact_type":"Preferred SUB/Vendor; NC Land Broker; SC Land Broker","phone":"910-617-4326","email":"marty@rockcreeklandcompany.com","company":"Rock Creek Land Company","city":null,"state":"NC","county":"columbus","website":null,"latitude":34.265475590000001,"longitude":-78.655078779999997}},{"type":"Feature","id":146,"geometry":{"type":"Point","coordinates":[-77.932879819999982,34.936156170000061]},"properties":{"OBJECTID":146,"unnamed__0":171,"full_name":"Marty Lanier","contact_type":"Preferred SUB/Vendor; NC Land Broker; SC Land Broker","phone":"910-617-4326","email":"marty@rockcreeklandcompany.com","company":"Rock Creek Land Company","city":null,"state":"NC","county":"duplin","website":null,"latitude":34.936156169999997,"longitude":-77.932879819999997}},{"type":"Feature","id":147,"geometry":{"type":"Point","coordinates":[-78.371285159999957,34.991367020000041]},"properties":{"OBJECTID":147,"unnamed__0":172,"full_name":"Marty Lanier","contact_type":"Preferred SUB/Vendor; NC Land Broker; SC Land Broker","phone":"910-617-4326","email":"marty@rockcreeklandcompany.com","company":"Rock Creek Land Company","city":null,"state":"NC","county":"sampson","website":null,"latitude":34.991367019999998,"longitude":-78.371285159999999}},{"type":"Feature","id":148,"geometry":{"type":"Point","coordinates":[-79.103542089999962,34.639949570000056]},"properties":{"OBJECTID":148,"unnamed__0":173,"full_name":"Marty Lanier","contact_type":"Preferred SUB/Vendor; NC Land Broker; SC Land Broker","phone":"910-617-4326","email":"marty@rockcreeklandcompany.com","company":"Rock Creek Land Company","city":null,"state":"NC","county":"robeson","website":null,"latitude":34.639949569999999,"longitude":-79.103542090000005}},{"type":"Feature","id":149,"geometry":{"type":"Point","coordinates":[-79.237091049999947,35.017290560000049]},"properties":{"OBJECTID":149,"unnamed__0":174,"full_name":"Marty Lanier","contact_type":"Preferred SUB/Vendor; NC Land Broker; SC Land Broker","phone":"910-617-4326","email":"marty@rockcreeklandcompany.com","company":"Rock Creek Land Company","city":null,"state":"NC","county":"hoke","website":null,"latitude":35.017290559999999,"longitude":-79.237091050000004}},{"type":"Feature","id":150,"geometry":{"type":"Point","coordinates":[-79.480436509999947,34.840813850000075]},"properties":{"OBJECTID":150,"unnamed__0":175,"full_name":"Marty Lanier","contact_type":"Preferred SUB/Vendor; NC Land Broker; SC Land Broker","phone":"910-617-4326","email":"marty@rockcreeklandcompany.com","company":"Rock Creek Land Company","city":null,"state":"NC","county":"scotland","website":null,"latitude":34.840813850000004,"longitude":-79.480436510000004}},{"type":"Feature","id":151,"geometry":{"type":"Point","coordinates":[-78.562967279999953,34.614243110000075]},"properties":{"OBJECTID":151,"unnamed__0":176,"full_name":"Marty Lanier","contact_type":"Preferred SUB/Vendor; NC Land Broker; SC Land Broker","phone":"910-617-4326","email":"marty@rockcreeklandcompany.com","company":"Rock Creek Land Company","city":null,"state":"NC","county":"bladen","website":null,"latitude":34.614243109999997,"longitude":-78.562967279999995}},{"type":"Feature","id":152,"geometry":{"type":"Point","coordinates":[-78.827350779999961,35.048512690000052]},"properties":{"OBJECTID":152,"unnamed__0":177,"full_name":"Marty Lanier","contact_type":"Preferred SUB/Vendor; NC Land Broker; SC Land Broker","phone":"910-617-4326","email":"marty@rockcreeklandcompany.com","company":"Rock Creek Land Company","city":null,"state":"NC","county":"cumberland","website":null,"latitude":35.048512690000003,"longitude":-78.827350780000003}},{"type":"Feature","id":153,"geometry":{"type":"Point","coordinates":[-79.806167899999934,35.710251450000044]},"properties":{"OBJECTID":153,"unnamed__0":182,"full_name":"Matthew Millaway","contact_type":"Preferred SUB/Vendor; NC Land Broker","phone":"3364423727","email":"\u003camber@wildoakrealestate.org; amber@wildoakrealestate.org; matt@themillawaygroup.com","company":null,"city":null,"state":"NC","county":"randolph","website":null,"latitude":35.710251450000001,"longitude":-79.806167900000005}},{"type":"Feature","id":154,"geometry":{"type":"Point","coordinates":[-80.256389019999972,36.130475330000024]},"properties":{"OBJECTID":154,"unnamed__0":183,"full_name":"Matthew Millaway","contact_type":"Preferred SUB/Vendor; NC Land Broker","phone":"3364423727","email":"\u003camber@wildoakrealestate.org; amber@wildoakrealestate.org; matt@themillawaygroup.com","company":null,"city":null,"state":"NC","county":"forsyth","website":null,"latitude":36.130475330000003,"longitude":-80.25638902}},{"type":"Feature","id":155,"geometry":{"type":"Point","coordinates":[-79.788997089999953,36.07941567000006]},"properties":{"OBJECTID":155,"unnamed__0":184,"full_name":"Matthew Millaway","contact_type":"Preferred SUB/Vendor; NC Land Broker","phone":"3364423727","email":"\u003camber@wildoakrealestate.org; amber@wildoakrealestate.org; matt@themillawaygroup.com","company":null,"city":null,"state":"NC","county":"guilford","website":null,"latitude":36.079415670000003,"longitude":-79.788997089999995}},{"type":"Feature","id":156,"geometry":{"type":"Point","coordinates":[-80.239605389999952,36.401864370000055]},"properties":{"OBJECTID":156,"unnamed__0":185,"full_name":"Matthew Millaway","contact_type":"Preferred SUB/Vendor; NC Land Broker","phone":"3364423727","email":"\u003camber@wildoakrealestate.org; amber@wildoakrealestate.org; matt@themillawaygroup.com","company":null,"city":null,"state":"NC","county":"stokes","website":null,"latitude":36.401864369999998,"longitude":-80.239605389999994}},{"type":"Feature","id":157,"geometry":{"type":"Point","coordinates":[-79.77514272999997,36.39607404000003]},"properties":{"OBJECTID":157,"unnamed__0":186,"full_name":"Matthew Millaway","contact_type":"Preferred SUB/Vendor; NC Land Broker","phone":"3364423727","email":"\u003camber@wildoakrealestate.org; amber@wildoakrealestate.org; matt@themillawaygroup.com","company":null,"city":null,"state":"NC","county":"rockingham","website":null,"latitude":36.396074040000002,"longitude":-79.775142729999999}},{"type":"Feature","id":158,"geometry":{"type":"Point","coordinates":[-79.399469129999943,36.043910830000073]},"properties":{"OBJECTID":158,"unnamed__0":187,"full_name":"Matthew Millaway","contact_type":"Preferred SUB/Vendor; NC Land Broker","phone":"3364423727","email":"\u003camber@wildoakrealestate.org; amber@wildoakrealestate.org; matt@themillawaygroup.com","company":null,"city":null,"state":"NC","county":"alamance","website":null,"latitude":36.043910830000002,"longitude":-79.39946913}},{"type":"Feature","id":159,"geometry":{"type":"Point","coordinates":[-79.33359913999999,36.393302230000074]},"properties":{"OBJECTID":159,"unnamed__0":188,"full_name":"Matthew Millaway","contact_type":"Preferred SUB/Vendor; NC Land Broker","phone":"3364423727","email":"\u003camber@wildoakrealestate.org; amber@wildoakrealestate.org; matt@themillawaygroup.com","company":null,"city":null,"state":"NC","county":"caswell","website":null,"latitude":36.393302230000003,"longitude":-79.333599140000004}},{"type":"Feature","id":160,"geometry":{"type":"Point","coordinates":[-78.971716189999938,36.390055200000063]},"properties":{"OBJECTID":160,"unnamed__0":189,"full_name":"Matthew Millaway","contact_type":"Preferred SUB/Vendor; NC Land Broker","phone":"3364423727","email":"\u003camber@wildoakrealestate.org; amber@wildoakrealestate.org; matt@themillawaygroup.com","company":null,"city":null,"state":"NC","county":"person","website":null,"latitude":36.390055199999999,"longitude":-78.971716189999995}},{"type":"Feature","id":161,"geometry":{"type":"Point","coordinates":[-80.212633529999948,35.793117790000053]},"properties":{"OBJECTID":161,"unnamed__0":190,"full_name":"Matthew Millaway","contact_type":"Preferred SUB/Vendor; NC Land Broker","phone":"3364423727","email":"\u003camber@wildoakrealestate.org; amber@wildoakrealestate.org; matt@themillawaygroup.com","company":null,"city":null,"state":"NC","county":"davidson","website":null,"latitude":35.793117789999997,"longitude":-80.212633530000005}},{"type":"Feature","id":162,"geometry":{"type":"Point","coordinates":[-79.120579119999945,36.061199480000028]},"properties":{"OBJECTID":162,"unnamed__0":191,"full_name":"May Castillo","contact_type":"Preferred SUB/Vendor; NC Land Broker","phone":"(786) 306-9541?","email":"kingsresidentialgroup@yahoo.com","company":null,"city":null,"state":"NC","county":"orange","website":null,"latitude":36.061199479999999,"longitude":-79.120579120000002}},{"type":"Feature","id":163,"geometry":{"type":"Point","coordinates":[-78.876327319999973,36.035888260000036]},"properties":{"OBJECTID":163,"unnamed__0":192,"full_name":"May Castillo","contact_type":"Preferred SUB/Vendor; NC Land Broker","phone":"(786) 306-9541?","email":"kingsresidentialgroup@yahoo.com","company":null,"city":null,"state":"NC","county":"durham","website":null,"latitude":36.03588826,"longitude":-78.876327320000001}},{"type":"Feature","id":164,"geometry":{"type":"Point","coordinates":[-78.650423389999958,35.790044030000047]},"properties":{"OBJECTID":164,"unnamed__0":193,"full_name":"May Castillo","contact_type":"Preferred SUB/Vendor; NC Land Broker","phone":"(786) 306-9541?","email":"kingsresidentialgroup@yahoo.com","company":null,"city":null,"state":"NC","county":"wake","website":null,"latitude":35.790044029999997,"longitude":-78.65042339}},{"type":"Feature","id":165,"geometry":{"type":"Point","coordinates":[-78.365706709999984,35.517497620000029]},"properties":{"OBJECTID":165,"unnamed__0":194,"full_name":"May Castillo","contact_type":"Preferred SUB/Vendor; NC Land Broker","phone":"(786) 306-9541?","email":"kingsresidentialgroup@yahoo.com","company":null,"city":null,"state":"NC","county":"johnston","website":null,"latitude":35.51749762,"longitude":-78.365706709999998}},{"type":"Feature","id":166,"geometry":{"type":"Point","coordinates":[-79.255437509999979,35.702602400000046]},"properties":{"OBJECTID":166,"unnamed__0":195,"full_name":"May Castillo","contact_type":"Preferred SUB/Vendor; NC Land Broker","phone":"(786) 306-9541?","email":"kingsresidentialgroup@yahoo.com","company":null,"city":null,"state":"NC","county":"chatham","website":null,"latitude":35.702602400000004,"longitude":-79.255437509999993}},{"type":"Feature","id":167,"geometry":{"type":"Point","coordinates":[-79.171465739999974,35.475135460000047]},"properties":{"OBJECTID":167,"unnamed__0":196,"full_name":"May Castillo","contact_type":"Preferred SUB/Vendor; NC Land Broker","phone":"(786) 306-9541?","email":"kingsresidentialgroup@yahoo.com","company":null,"city":null,"state":"NC","county":"lee","website":null,"latitude":35.475135459999997,"longitude":-79.171465740000002}},{"type":"Feature","id":168,"geometry":{"type":"Point","coordinates":[-79.48119848999994,35.310637480000025]},"properties":{"OBJECTID":168,"unnamed__0":197,"full_name":"May Castillo","contact_type":"Preferred SUB/Vendor; NC Land Broker","phone":"(786) 306-9541?","email":"kingsresidentialgroup@yahoo.com","company":null,"city":null,"state":"NC","county":"moore","website":null,"latitude":35.310637479999997,"longitude":-79.481198489999997}},{"type":"Feature","id":169,"geometry":{"type":"Point","coordinates":[-78.869393139999943,35.36860783000003]},"properties":{"OBJECTID":169,"unnamed__0":198,"full_name":"May Castillo","contact_type":"Preferred SUB/Vendor; NC Land Broker","phone":"(786) 306-9541?","email":"kingsresidentialgroup@yahoo.com","company":null,"city":null,"state":"NC","county":"harnett","website":null,"latitude":35.368607830000002,"longitude":-78.86939314}},{"type":"Feature","id":170,"geometry":{"type":"Point","coordinates":[-79.237091049999947,35.017290560000049]},"properties":{"OBJECTID":170,"unnamed__0":199,"full_name":"May Castillo","contact_type":"Preferred SUB/Vendor; NC Land Broker","phone":"(786) 306-9541?","email":"kingsresidentialgroup@yahoo.com","company":null,"city":null,"state":"NC","county":"hoke","website":null,"latitude":35.017290559999999,"longitude":-79.237091050000004}},{"type":"Feature","id":171,"geometry":{"type":"Point","coordinates":[-79.480436509999947,34.840813850000075]},"properties":{"OBJECTID":171,"unnamed__0":200,"full_name":"May Castillo","contact_type":"Preferred SUB/Vendor; NC Land Broker","phone":"(786) 306-9541?","email":"kingsresidentialgroup@yahoo.com","company":null,"city":null,"state":"NC","county":"scotland","website":null,"latitude":34.840813850000004,"longitude":-79.480436510000004}},{"type":"Feature","id":172,"geometry":{"type":"Point","coordinates":[-79.103542089999962,34.639949570000056]},"properties":{"OBJECTID":172,"unnamed__0":201,"full_name":"May Castillo","contact_type":"Preferred SUB/Vendor; NC Land Broker","phone":"(786) 306-9541?","email":"kingsresidentialgroup@yahoo.com","company":null,"city":null,"state":"NC","county":"robeson","website":null,"latitude":34.639949569999999,"longitude":-79.103542090000005}},{"type":"Feature","id":173,"geometry":{"type":"Point","coordinates":[-78.562967279999953,34.614243110000075]},"properties":{"OBJECTID":173,"unnamed__0":202,"full_name":"May Castillo","contact_type":"Preferred SUB/Vendor; NC Land Broker","phone":"(786) 306-9541?","email":"kingsresidentialgroup@yahoo.com","company":null,"city":null,"state":"NC","county":"bladen","website":null,"latitude":34.614243109999997,"longitude":-78.562967279999995}},{"type":"Feature","id":174,"geometry":{"type":"Point","coordinates":[-78.371285159999957,34.991367020000041]},"properties":{"OBJECTID":174,"unnamed__0":203,"full_name":"May Castillo","contact_type":"Preferred SUB/Vendor; NC Land Broker","phone":"(786) 306-9541?","email":"kingsresidentialgroup@yahoo.com","company":null,"city":null,"state":"NC","county":"sampson","website":null,"latitude":34.991367019999998,"longitude":-78.371285159999999}},{"type":"Feature","id":175,"geometry":{"type":"Point","coordinates":[-78.827350779999961,35.048512690000052]},"properties":{"OBJECTID":175,"unnamed__0":204,"full_name":"May Castillo","contact_type":"Preferred SUB/Vendor; NC Land Broker","phone":"(786) 306-9541?","email":"kingsresidentialgroup@yahoo.com","company":null,"city":null,"state":"NC","county":"cumberland","website":null,"latitude":35.048512690000003,"longitude":-78.827350780000003}},{"type":"Feature","id":176,"geometry":{"type":"Point","coordinates":[-78.004204629999947,35.363688870000033]},"properties":{"OBJECTID":176,"unnamed__0":205,"full_name":"May Castillo","contact_type":"Preferred SUB/Vendor; NC Land Broker","phone":"(786) 306-9541?","email":"kingsresidentialgroup@yahoo.com","company":null,"city":null,"state":"NC","county":"wayne","website":null,"latitude":35.363688869999997,"longitude":-78.004204630000004}},{"type":"Feature","id":177,"geometry":{"type":"Point","coordinates":[-78.106887509999979,36.396534430000031]},"properties":{"OBJECTID":177,"unnamed__0":206,"full_name":"Melissa White","contact_type":"Preferred SUB/Vendor; NC Land Broker","phone":" 919-304-2323","email":"melissa@melissawhiteteam.com","company":null,"city":null,"state":"NC","county":"warren","website":null,"latitude":36.396534430000003,"longitude":-78.106887510000007}},{"type":"Feature","id":178,"geometry":{"type":"Point","coordinates":[-77.433448229999954,34.736606380000069]},"properties":{"OBJECTID":178,"unnamed__0":207,"full_name":"Renee Taylor","contact_type":"Preferred SUB/Vendor; NC Land Broker","phone":"9102420844","email":"reneetaylorrealtor@gmail.com","company":null,"city":null,"state":"NC","county":"onslow","website":null,"latitude":34.736606379999998,"longitude":-77.433448229999996}},{"type":"Feature","id":179,"geometry":{"type":"Point","coordinates":[-77.355085669999937,35.02170140000004]},"properties":{"OBJECTID":179,"unnamed__0":208,"full_name":"Renee Taylor","contact_type":"Preferred SUB/Vendor; NC Land Broker","phone":"9102420844","email":"reneetaylorrealtor@gmail.com","company":null,"city":null,"state":"NC","county":"jones","website":null,"latitude":35.021701399999998,"longitude":-77.355085669999994}},{"type":"Feature","id":180,"geometry":{"type":"Point","coordinates":[-77.932879819999982,34.936156170000061]},"properties":{"OBJECTID":180,"unnamed__0":209,"full_name":"Renee Taylor","contact_type":"Preferred SUB/Vendor; NC Land Broker","phone":"9102420844","email":"reneetaylorrealtor@gmail.com","company":null,"city":null,"state":"NC","county":"duplin","website":null,"latitude":34.936156169999997,"longitude":-77.932879819999997}},{"type":"Feature","id":181,"geometry":{"type":"Point","coordinates":[-77.096241119999945,35.125502320000066]},"properties":{"OBJECTID":181,"unnamed__0":210,"full_name":"Renee Taylor","contact_type":"Preferred SUB/Vendor; NC Land Broker","phone":"9102420844","email":"reneetaylorrealtor@gmail.com","company":null,"city":null,"state":"NC","county":"craven","website":null,"latitude":35.125502320000002,"longitude":-77.096241120000002}},{"type":"Feature","id":182,"geometry":{"type":"Point","coordinates":[-76.670587049999938,34.830535010000062]},"properties":{"OBJECTID":182,"unnamed__0":211,"full_name":"Renee Taylor","contact_type":"Preferred SUB/Vendor; NC Land Broker","phone":"9102420844","email":"reneetaylorrealtor@gmail.com","company":null,"city":null,"state":"NC","county":"carteret","website":null,"latitude":34.830535009999998,"longitude":-76.670587049999995}},{"type":"Feature","id":183,"geometry":{"type":"Point","coordinates":[-77.907320729999981,34.525498280000079]},"properties":{"OBJECTID":183,"unnamed__0":212,"full_name":"Renee Taylor","contact_type":"Preferred SUB/Vendor; NC Land Broker","phone":"9102420844","email":"reneetaylorrealtor@gmail.com","company":null,"city":null,"state":"NC","county":"pender","website":null,"latitude":34.525498280000001,"longitude":-77.907320729999995}},{"type":"Feature","id":184,"geometry":null,"properties":{"OBJECTID":184,"Shape":null,"unnamed__0":213,"full_name":"Sarah Melton","contact_type":"Preferred SUB/Vendor; TN Land Broker","phone":"8652163817","email":null,"company":null,"city":null,"state":"TN","county":"all of","website":null,"latitude":null,"longitude":null}},{"type":"Feature","id":185,"geometry":{"type":"Point","coordinates":[-78.65507877999994,34.265475590000051]},"properties":{"OBJECTID":185,"unnamed__0":214,"full_name":"Seth Huntt","contact_type":"Preferred SUB/Vendor; NC Land Broker","phone":"7403418624","email":"shuntt@prosperrealestatenc.com","company":null,"city":null,"state":"NC","county":"columbus","website":null,"latitude":34.265475590000001,"longitude":-78.655078779999997}},{"type":"Feature","id":186,"geometry":{"type":"Point","coordinates":[-77.88398731999996,34.242772810000076]},"properties":{"OBJECTID":186,"unnamed__0":215,"full_name":"Seth Huntt","contact_type":"Preferred SUB/Vendor; NC Land Broker","phone":"7403418624","email":"shuntt@prosperrealestatenc.com","company":null,"city":null,"state":"NC","county":"new hanover","website":null,"latitude":34.242772809999998,"longitude":-77.883987320000003}},{"type":"Feature","id":187,"geometry":{"type":"Point","coordinates":[-83.837513199999989,36.287831840000024]},"properties":{"OBJECTID":187,"unnamed__0":216,"full_name":"Tammie Hill","contact_type":"Preferred SUB/Vendor; TN Land Broker","phone":"865-256-3805","email":"tammiehillrealtor@gmail.com","company":null,"city":null,"state":"TN","county":"union","website":null,"latitude":36.287831840000003,"longitude":-83.837513200000004}},{"type":"Feature","id":188,"geometry":{"type":"Point","coordinates":[-83.660367829999984,36.485903870000072]},"properties":{"OBJECTID":188,"unnamed__0":217,"full_name":"Tammie Hill","contact_type":"Preferred SUB/Vendor; TN Land Broker","phone":"865-256-3805","email":"tammiehillrealtor@gmail.com","company":null,"city":null,"state":"TN","county":"claiborne","website":null,"latitude":36.485903870000001,"longitude":-83.660367829999998}},{"type":"Feature","id":189,"geometry":{"type":"Point","coordinates":[-83.937230119999981,35.993218090000028]},"properties":{"OBJECTID":189,"unnamed__0":218,"full_name":"Tammie Hill","contact_type":"Preferred SUB/Vendor; TN Land Broker","phone":"865-256-3805","email":"tammiehillrealtor@gmail.com","company":null,"city":null,"state":"TN","county":"knox","website":null,"latitude":35.993218089999999,"longitude":-83.937230119999995}},{"type":"Feature","id":190,"geometry":{"type":"Point","coordinates":[-83.509745449999969,36.276265230000035]},"properties":{"OBJECTID":190,"unnamed__0":219,"full_name":"Tammie Hill","contact_type":"Preferred SUB/Vendor; TN Land Broker","phone":"865-256-3805","email":"tammiehillrealtor@gmail.com","company":null,"city":null,"state":"TN","county":"grainger","website":null,"latitude":36.27626523,"longitude":-83.509745449999997}},{"type":"Feature","id":191,"geometry":{"type":"Point","coordinates":[-83.446269689999951,36.050987650000025]},"properties":{"OBJECTID":191,"unnamed__0":220,"full_name":"Tammie Hill","contact_type":"Preferred SUB/Vendor; TN Land Broker","phone":"865-256-3805","email":"tammiehillrealtor@gmail.com","company":null,"city":null,"state":"TN","county":"jefferson","website":null,"latitude":36.050987650000003,"longitude":-83.446269689999994}},{"type":"Feature","id":192,"geometry":{"type":"Point","coordinates":[-79.957769559999974,34.332298680000065]},"properties":{"OBJECTID":192,"unnamed__0":0,"full_name":"Amy Moss","contact_type":"Preferred SUB/Vendor; SC Land Broker","phone":"8038043003","email":"amymoss@kw.com","company":null,"city":null,"state":"SC","county":"darlington","website":null,"latitude":34.332298680000001,"longitude":-79.957769560000003}},{"type":"Feature","id":193,"geometry":{"type":"Point","coordinates":[-79.335399089999953,33.437977620000026]},"properties":{"OBJECTID":193,"unnamed__0":1,"full_name":"Amy Moss","contact_type":"Preferred SUB/Vendor; SC Land Broker","phone":"8038043003","email":"amymoss@kw.com","company":null,"city":null,"state":"SC","county":"georgetown","website":null,"latitude":33.437977619999998,"longitude":-79.335399089999996}},{"type":"Feature","id":194,"geometry":{"type":"Point","coordinates":[-78.996971649999978,33.921456600000056]},"properties":{"OBJECTID":194,"unnamed__0":2,"full_name":"Amy Moss","contact_type":"Preferred SUB/Vendor; SC Land Broker","phone":"8038043003","email":"amymoss@kw.com","company":null,"city":null,"state":"SC","county":"horry","website":null,"latitude":33.921456599999999,"longitude":-78.996971650000006}},{"type":"Feature","id":195,"geometry":{"type":"Point","coordinates":[-79.702640239999937,34.024273660000063]},"properties":{"OBJECTID":195,"unnamed__0":3,"full_name":"Amy Moss","contact_type":"Preferred SUB/Vendor; SC Land Broker","phone":"8038043003","email":"amymoss@kw.com","company":null,"city":null,"state":"SC","county":"florence","website":null,"latitude":34.024273659999999,"longitude":-79.702640239999994}},{"type":"Feature","id":196,"geometry":{"type":"Point","coordinates":[-79.727767159999985,33.619870720000051]},"properties":{"OBJECTID":196,"unnamed__0":4,"full_name":"Amy Moss","contact_type":"Preferred SUB/Vendor; SC Land Broker","phone":"8038043003","email":"amymoss@kw.com","company":null,"city":null,"state":"SC","county":"williamsburg","website":null,"latitude":33.619870720000002,"longitude":-79.727767159999999}},{"type":"Feature","id":197,"geometry":{"type":"Point","coordinates":[-78.996971649999978,33.921456600000056]},"properties":{"OBJECTID":197,"unnamed__0":178,"full_name":"Marty Lanier","contact_type":"Preferred SUB/Vendor; NC Land Broker; SC Land Broker","phone":"910-617-4326","email":"marty@rockcreeklandcompany.com","company":"Rock Creek Land Company","city":null,"state":"SC","county":"horry","website":null,"latitude":33.921456599999999,"longitude":-78.996971650000006}},{"type":"Feature","id":198,"geometry":{"type":"Point","coordinates":[-79.362438269999984,34.079838570000049]},"properties":{"OBJECTID":198,"unnamed__0":5,"full_name":"Amy Moss","contact_type":"Preferred SUB/Vendor; SC Land Broker","phone":"8038043003","email":"amymoss@kw.com","company":null,"city":null,"state":"SC","county":"marion","website":null,"latitude":34.07983857,"longitude":-79.362438269999998}},{"type":"Feature","id":199,"geometry":{"type":"Point","coordinates":[-81.990594499999986,34.931065520000061]},"properties":{"OBJECTID":199,"unnamed__0":34,"full_name":"Buck Travis","contact_type":"Preferred SUB/Vendor; SC Land Broker","phone":"803-854-3000","email":"buck@santeeassociates.com","company":null,"city":null,"state":"SC","county":"spartanburg","website":null,"latitude":34.931065519999997,"longitude":-81.9905945}},{"type":"Feature","id":200,"geometry":{"type":"Point","coordinates":[-80.216611169999965,33.665774660000068]},"properties":{"OBJECTID":200,"unnamed__0":35,"full_name":"Buck Travis","contact_type":"Preferred SUB/Vendor; SC Land Broker","phone":"803-854-3000","email":"buck@santeeassociates.com","company":null,"city":null,"state":"SC","county":"clarendon","website":null,"latitude":33.665774659999997,"longitude":-80.216611169999993}},{"type":"Feature","id":201,"geometry":{"type":"Point","coordinates":[-80.78014737999996,33.67493316000008]},"properties":{"OBJECTID":201,"unnamed__0":36,"full_name":"Buck Travis","contact_type":"Preferred SUB/Vendor; SC Land Broker","phone":"803-854-3000","email":"buck@santeeassociates.com","company":null,"city":null,"state":"SC","county":"calhoun","website":null,"latitude":33.674933160000002,"longitude":-80.780147380000002}},{"type":"Feature","id":202,"geometry":{"type":"Point","coordinates":[-79.951062419999971,33.199469500000077]},"properties":{"OBJECTID":202,"unnamed__0":37,"full_name":"Buck Travis","contact_type":"Preferred SUB/Vendor; SC Land Broker","phone":"803-854-3000","email":"buck@santeeassociates.com","company":null,"city":null,"state":"SC","county":"berkeley","website":null,"latitude":33.199469499999999,"longitude":-79.95106242}},{"type":"Feature","id":203,"geometry":{"type":"Point","coordinates":[-80.405127869999944,33.079425540000045]},"properties":{"OBJECTID":203,"unnamed__0":38,"full_name":"Buck Travis","contact_type":"Preferred SUB/Vendor; SC Land Broker","phone":"803-854-3000","email":"buck@santeeassociates.com","company":null,"city":null,"state":"SC","county":"dorchester","website":null,"latitude":33.079425540000003,"longitude":-80.405127870000001}},{"type":"Feature","id":204,"geometry":{"type":"Point","coordinates":[-82.725344839999934,34.88738778000004]},"properties":{"OBJECTID":204,"unnamed__0":45,"full_name":"Chase Styles","contact_type":"Preferred SUB/Vendor; SC Land Broker","phone":"(864) 365-5440?","email":"CStyles@reedypg.com","company":"Reedy Land Co.","city":null,"state":"SC","county":"pickens","website":null,"latitude":34.887387779999997,"longitude":-82.725344840000005}},{"type":"Feature","id":205,"geometry":{"type":"Point","coordinates":[-83.065890349999961,34.753355810000073]},"properties":{"OBJECTID":205,"unnamed__0":46,"full_name":"Chase Styles","contact_type":"Preferred SUB/Vendor; SC Land Broker","phone":"(864) 365-5440?","email":"CStyles@reedypg.com","company":"Reedy Land Co.","city":null,"state":"SC","county":"oconee","website":null,"latitude":34.753355810000002,"longitude":-83.065890350000004}},{"type":"Feature","id":206,"geometry":{"type":"Point","coordinates":[-82.370572919999972,34.893981020000069]},"properties":{"OBJECTID":206,"unnamed__0":47,"full_name":"Chase Styles","contact_type":"Preferred SUB/Vendor; SC Land Broker","phone":"(864) 365-5440?","email":"CStyles@reedypg.com","company":"Reedy Land Co.","city":null,"state":"SC","county":"greenville","website":null,"latitude":34.893981019999998,"longitude":-82.370572920000001}},{"type":"Feature","id":207,"geometry":{"type":"Point","coordinates":[-81.990594499999986,34.931065520000061]},"properties":{"OBJECTID":207,"unnamed__0":109,"full_name":"Grant Mcdowell","contact_type":"Preferred SUB/Vendor; SC Land Broker","phone":"864-590-9019","email":"grantmcdowell@kw.com","company":null,"city":null,"state":"SC","county":"spartanburg","website":null,"latitude":34.931065519999997,"longitude":-81.9905945}},{"type":"Feature","id":208,"geometry":{"type":"Point","coordinates":[-82.370572919999972,34.893981020000069]},"properties":{"OBJECTID":208,"unnamed__0":110,"full_name":"Grant Mcdowell","contact_type":"Preferred SUB/Vendor; SC Land Broker","phone":"864-590-9019","email":"grantmcdowell@kw.com","company":null,"city":null,"state":"SC","county":"greenville","website":null,"latitude":34.893981019999998,"longitude":-82.370572920000001}},{"type":"Feature","id":209,"geometry":{"type":"Point","coordinates":[-82.637922989999936,34.518973970000047]},"properties":{"OBJECTID":209,"unnamed__0":111,"full_name":"Grant Mcdowell","contact_type":"Preferred SUB/Vendor; SC Land Broker","phone":"864-590-9019","email":"grantmcdowell@kw.com","company":null,"city":null,"state":"SC","county":"anderson","website":null,"latitude":34.518973969999998,"longitude":-82.637922990000007}},{"type":"Feature","id":210,"geometry":{"type":"Point","coordinates":[-81.620353999999963,35.048157340000046]},"properties":{"OBJECTID":210,"unnamed__0":112,"full_name":"Grant Mcdowell","contact_type":"Preferred SUB/Vendor; SC Land Broker","phone":"864-590-9019","email":"grantmcdowell@kw.com","company":null,"city":null,"state":"SC","county":"cherokee","website":null,"latitude":35.048157340000003,"longitude":-81.620354000000006}},{"type":"Feature","id":211,"geometry":{"type":"Point","coordinates":[-79.965870069999937,32.831915280000032]},"properties":{"OBJECTID":211,"unnamed__0":152,"full_name":"Kat McDonnell","contact_type":"Preferred SUB/Vendor; SC Land Broker","phone":"(814) 490-3094?","email":"Katsellscharleston@gmail.com","company":null,"city":null,"state":"SC","county":"charleston","website":null,"latitude":32.831915279999997,"longitude":-79.965870069999994}},{"type":"Feature","id":212,"geometry":{"type":"Point","coordinates":[-80.405127869999944,33.079425540000045]},"properties":{"OBJECTID":212,"unnamed__0":153,"full_name":"Kat McDonnell","contact_type":"Preferred SUB/Vendor; SC Land Broker","phone":"(814) 490-3094?","email":"Katsellscharleston@gmail.com","company":null,"city":null,"state":"SC","county":"dorchester","website":null,"latitude":33.079425540000003,"longitude":-80.405127870000001}},{"type":"Feature","id":213,"geometry":{"type":"Point","coordinates":[-79.951062419999971,33.199469500000077]},"properties":{"OBJECTID":213,"unnamed__0":154,"full_name":"Kat McDonnell","contact_type":"Preferred SUB/Vendor; SC Land Broker","phone":"(814) 490-3094?","email":"Katsellscharleston@gmail.com","company":null,"city":null,"state":"SC","county":"berkeley","website":null,"latitude":33.199469499999999,"longitude":-79.95106242}},{"type":"Feature","id":214,"geometry":null,"properties":{"OBJECTID":214,"Shape":null,"unnamed__0":155,"full_name":"Kat McDonnell","contact_type":"Preferred SUB/Vendor; SC Land Broker","phone":"(814) 490-3094?","email":"Katsellscharleston@gmail.com","company":null,"city":null,"state":"SC","county":null,"website":null,"latitude":null,"longitude":null}},{"type":"Feature","id":215,"geometry":null,"properties":{"OBJECTID":215,"Shape":null,"unnamed__0":156,"full_name":"Kimberly Coolican","contact_type":"Preferred SUB/Vendor; SC Land Broker","phone":"(843)324-7861","email":"coolican.realtor@gmail.com","company":null,"city":null,"state":"SC","county":null,"website":null,"latitude":null,"longitude":null}},{"type":"Feature","id":216,"geometry":{"type":"Point","coordinates":[-81.140771519999987,32.776267680000046]},"properties":{"OBJECTID":216,"unnamed__0":157,"full_name":"Kimberly Coolican","contact_type":"Preferred SUB/Vendor; SC Land Broker","phone":"(843)324-7861","email":"coolican.realtor@gmail.com","company":null,"city":null,"state":"SC","county":"hampton","website":null,"latitude":32.776267679999997,"longitude":-81.140771520000001}},{"type":"Feature","id":217,"geometry":{"type":"Point","coordinates":[-81.032773479999946,32.437679130000049]},"properties":{"OBJECTID":217,"unnamed__0":158,"full_name":"Kimberly Coolican","contact_type":"Preferred SUB/Vendor; SC Land Broker","phone":"(843)324-7861","email":"coolican.realtor@gmail.com","company":null,"city":null,"state":"SC","county":"jasper","website":null,"latitude":32.437679129999999,"longitude":-81.032773480000003}},{"type":"Feature","id":218,"geometry":{"type":"Point","coordinates":[-80.737906659999965,32.385835850000035]},"properties":{"OBJECTID":218,"unnamed__0":159,"full_name":"Kimberly Coolican","contact_type":"Preferred SUB/Vendor; SC Land Broker","phone":"(843)324-7861","email":"coolican.realtor@gmail.com","company":null,"city":null,"state":"SC","county":"beaufort","website":null,"latitude":32.385835849999999,"longitude":-80.737906659999993}},{"type":"Feature","id":219,"geometry":{"type":"Point","coordinates":[-79.378877389999957,34.391505940000059]},"properties":{"OBJECTID":219,"unnamed__0":179,"full_name":"Marty Lanier","contact_type":"Preferred SUB/Vendor; NC Land Broker; SC Land Broker","phone":"910-617-4326","email":"marty@rockcreeklandcompany.com","company":"Rock Creek Land Company","city":null,"state":"SC","county":"dillon","website":null,"latitude":34.391505940000002,"longitude":-79.37887739}},{"type":"Feature","id":220,"geometry":{"type":"Point","coordinates":[-79.362438269999984,34.079838570000049]},"properties":{"OBJECTID":220,"unnamed__0":180,"full_name":"Marty Lanier","contact_type":"Preferred SUB/Vendor; NC Land Broker; SC Land Broker","phone":"910-617-4326","email":"marty@rockcreeklandcompany.com","company":"Rock Creek Land Company","city":null,"state":"SC","county":"marion","website":null,"latitude":34.07983857,"longitude":-79.362438269999998}},{"type":"Feature","id":221,"geometry":{"type":"Point","coordinates":[-79.67850016999995,34.601851400000044]},"properties":{"OBJECTID":221,"unnamed__0":181,"full_name":"Marty Lanier","contact_type":"Preferred SUB/Vendor; NC Land Broker; SC Land Broker","phone":"910-617-4326","email":"marty@rockcreeklandcompany.com","company":"Rock Creek Land Company","city":null,"state":"SC","county":"marlboro","website":null,"latitude":34.601851400000001,"longitude":-79.678500170000007}}]}